[
    {
        "pk": 1,
        "model": "safeLoad.CCTV",
        "fields": {
            "CCTV_ADDRESS_NAME": "서울특별시 강남구 헌릉로622길 27",
            "CCTV_KIND": 1,
            "CCTV_LONGITUDE": "127.1068432",
            "CCTV_LATITUDE": "37.4628186"
        }
    },
    {
        "pk": 2,
        "model": "safeLoad.CCTV",
        "fields": {
            "CCTV_ADDRESS_NAME": "서울특별시 강남구 밤고개로36길 6",
            "CCTV_KIND": 1,
            "CCTV_LONGITUDE": "127.1073011",
            "CCTV_LATITUDE": "37.4631924"
        }
    },
    {
        "pk": 3,
        "model": "safeLoad.CCTV",
        "fields": {
            "CCTV_ADDRESS_NAME": "서울특별시 강남구 밤고개로34길 23 (세곡동)",
            "CCTV_KIND": 1,
            "CCTV_LONGITUDE": "127.105896",
            "CCTV_LATITUDE": "37.4635675"
        }
    },
    {
        "pk": 4,
        "model": "safeLoad.CCTV",
        "fields": {
            "CCTV_ADDRESS_NAME": "서울특별시 강남구 헌릉로590길 11 (세곡동, 리엔파크3단지)",
            "CCTV_KIND": 1,
            "CCTV_LONGITUDE": "127.1044593",
            "CCTV_LATITUDE": "37.4636638"
        }
    },
    {
        "pk": 5,
        "model": "safeLoad.CCTV",
        "fields": {
            "CCTV_ADDRESS_NAME": "서울특별시 강남구 헌릉로590길 11 (세곡동, 리엔파크3단지)",
            "CCTV_KIND": 1,
            "CCTV_LONGITUDE": "127.1044593",
            "CCTV_LATITUDE": "37.4636638"
        }
    },
    {
        "pk": 6,
        "model": "safeLoad.CCTV",
        "fields": {
            "CCTV_ADDRESS_NAME": "서울특별시 강남구 헌릉로618길 8",
            "CCTV_KIND": 1,
            "CCTV_LONGITUDE": "127.1056319",
            "CCTV_LATITUDE": "37.4641998"
        }
    },
    {
        "pk": 7,
        "model": "safeLoad.CCTV",
        "fields": {
            "CCTV_ADDRESS_NAME": "서울특별시 강남구 헌릉로645길 17 (세곡동)",
            "CCTV_KIND": 1,
            "CCTV_LONGITUDE": "127.1095966",
            "CCTV_LATITUDE": "37.4660796"
        }
    },
    {
        "pk": 8,
        "model": "safeLoad.CCTV",
        "fields": {
            "CCTV_ADDRESS_NAME": "서울특별시 강남구 헌릉로637길 22(세곡동)",
            "CCTV_KIND": 1,
            "CCTV_LONGITUDE": "127.109182",
            "CCTV_LATITUDE": "37.4663017"
        }
    },
    {
        "pk": 9,
        "model": "safeLoad.CCTV",
        "fields": {
            "CCTV_ADDRESS_NAME": "서울특별시 강남구 헌릉로569길 19",
            "CCTV_KIND": 1,
            "CCTV_LONGITUDE": "127.0995892",
            "CCTV_LATITUDE": "37.4667973"
        }
    },
    {
        "pk": 10,
        "model": "safeLoad.CCTV",
        "fields": {
            "CCTV_ADDRESS_NAME": "서울특별시 강남구 헌릉로645길 31 (세곡동)",
            "CCTV_KIND": 1,
            "CCTV_LONGITUDE": "127.1096406",
            "CCTV_LATITUDE": "37.4669405"
        }
    },
    {
        "pk": 11,
        "model": "safeLoad.CCTV",
        "fields": {
            "CCTV_ADDRESS_NAME": "서울특별시 강남구 헌릉로571길 23-15(세곡동)",
            "CCTV_KIND": 1,
            "CCTV_LONGITUDE": "127.1002939",
            "CCTV_LATITUDE": "37.46728215"
        }
    },
    {
        "pk": 12,
        "model": "safeLoad.CCTV",
        "fields": {
            "CCTV_ADDRESS_NAME": "서울특별시 강남구 밤고개로29길 8",
            "CCTV_KIND": 1,
            "CCTV_LONGITUDE": "127.1092237",
            "CCTV_LATITUDE": "37.4673068"
        }
    },
    {
        "pk": 13,
        "model": "safeLoad.CCTV",
        "fields": {
            "CCTV_ADDRESS_NAME": "서울특별시 강남구 헌릉로637길 36 (세곡동)",
            "CCTV_KIND": 1,
            "CCTV_LONGITUDE": "127.1090552",
            "CCTV_LATITUDE": "37.4673118"
        }
    },
    {
        "pk": 14,
        "model": "safeLoad.CCTV",
        "fields": {
            "CCTV_ADDRESS_NAME": "서울특별시 강남구 자곡로 21 (세곡동, 세곡푸르지오)",
            "CCTV_KIND": 1,
            "CCTV_LONGITUDE": "127.0932629",
            "CCTV_LATITUDE": "37.46734557"
        }
    },
    {
        "pk": 15,
        "model": "safeLoad.CCTV",
        "fields": {
            "CCTV_ADDRESS_NAME": "서울특별시 강남구 헌릉로571길 20(세곡동, 강남엘에이치1단지)",
            "CCTV_KIND": 1,
            "CCTV_LONGITUDE": "127.1192919",
            "CCTV_LATITUDE": "37.4673828"
        }
    },
    {
        "pk": 16,
        "model": "safeLoad.CCTV",
        "fields": {
            "CCTV_ADDRESS_NAME": "서울특별시 강남구 헌릉로571길 66-1 (세곡동)",
            "CCTV_KIND": 1,
            "CCTV_LONGITUDE": "127.0976355",
            "CCTV_LATITUDE": "37.46756549"
        }
    },
    {
        "pk": 17,
        "model": "safeLoad.CCTV",
        "fields": {
            "CCTV_ADDRESS_NAME": "서울특별시 강남구 헌릉로569길 52-29(세곡동)",
            "CCTV_KIND": 1,
            "CCTV_LONGITUDE": "127.0978989",
            "CCTV_LATITUDE": "37.46839781"
        }
    },
    {
        "pk": 18,
        "model": "safeLoad.CCTV",
        "fields": {
            "CCTV_ADDRESS_NAME": "서울특별시 강남구 헌릉로569길 52-37",
            "CCTV_KIND": 1,
            "CCTV_LONGITUDE": "127.0987672",
            "CCTV_LATITUDE": "37.468498"
        }
    },
    {
        "pk": 19,
        "model": "safeLoad.CCTV",
        "fields": {
            "CCTV_ADDRESS_NAME": "서울특별시 강남구 헌릉로571길 34-15 (세곡동)",
            "CCTV_KIND": 1,
            "CCTV_LONGITUDE": "127.1006123",
            "CCTV_LATITUDE": "37.46868025"
        }
    },
    {
        "pk": 20,
        "model": "safeLoad.CCTV",
        "fields": {
            "CCTV_ADDRESS_NAME": "서울특별시 강남구 자곡로55 (세곡동)",
            "CCTV_KIND": 1,
            "CCTV_LONGITUDE": "127.0910762",
            "CCTV_LATITUDE": "37.46885737"
        }
    },
    {
        "pk": 21,
        "model": "safeLoad.CCTV",
        "fields": {
            "CCTV_ADDRESS_NAME": "서울특별시 강남구 밤고개로26길 43",
            "CCTV_KIND": 1,
            "CCTV_LONGITUDE": "127.1042527",
            "CCTV_LATITUDE": "37.46899785"
        }
    },
    {
        "pk": 22,
        "model": "safeLoad.CCTV",
        "fields": {
            "CCTV_ADDRESS_NAME": "서울특별시 강남구 헌릉로571길 46-20 (세곡동)",
            "CCTV_KIND": 1,
            "CCTV_LONGITUDE": "127.1002239",
            "CCTV_LATITUDE": "37.4690554"
        }
    },
    {
        "pk": 23,
        "model": "safeLoad.CCTV",
        "fields": {
            "CCTV_ADDRESS_NAME": "서울특별시 강남구 자곡로3길 22",
            "CCTV_KIND": 1,
            "CCTV_LONGITUDE": "127.0910188",
            "CCTV_LATITUDE": "37.46997106"
        }
    },
    {
        "pk": 24,
        "model": "safeLoad.CCTV",
        "fields": {
            "CCTV_ADDRESS_NAME": "서울특별시 강남구 자곡로3길 22 (자곡동, 엘에이치강남3단지)",
            "CCTV_KIND": 1,
            "CCTV_LONGITUDE": "127.0910188",
            "CCTV_LATITUDE": "37.46997106"
        }
    },
    {
        "pk": 25,
        "model": "safeLoad.CCTV",
        "fields": {
            "CCTV_ADDRESS_NAME": "서울특별시 강남구 헌릉로745길 37(율현동)",
            "CCTV_KIND": 1,
            "CCTV_LONGITUDE": "127.1186282",
            "CCTV_LATITUDE": "37.4702733"
        }
    },
    {
        "pk": 26,
        "model": "safeLoad.CCTV",
        "fields": {
            "CCTV_ADDRESS_NAME": "서울특별시 강남구 밤고개로24길 80-13",
            "CCTV_KIND": 1,
            "CCTV_LONGITUDE": "127.1033998",
            "CCTV_LATITUDE": "37.470311"
        }
    },
    {
        "pk": 27,
        "model": "safeLoad.CCTV",
        "fields": {
            "CCTV_ADDRESS_NAME": "서울특별시 강남구 헌릉로757길 35(율현동)",
            "CCTV_KIND": 1,
            "CCTV_LONGITUDE": "127.1193059",
            "CCTV_LATITUDE": "37.470327"
        }
    },
    {
        "pk": 28,
        "model": "safeLoad.CCTV",
        "fields": {
            "CCTV_ADDRESS_NAME": "서울특별시 강남구 헌릉로757길 35(율현동)",
            "CCTV_KIND": 1,
            "CCTV_LONGITUDE": "127.1193059",
            "CCTV_LATITUDE": "37.470327"
        }
    },
    {
        "pk": 29,
        "model": "safeLoad.CCTV",
        "fields": {
            "CCTV_ADDRESS_NAME": "서울특별시 강남구 밤고개로24길 84-20 (율현동)",
            "CCTV_KIND": 1,
            "CCTV_LONGITUDE": "127.1028365",
            "CCTV_LATITUDE": "37.4704302"
        }
    },
    {
        "pk": 30,
        "model": "safeLoad.CCTV",
        "fields": {
            "CCTV_ADDRESS_NAME": "서울특별시 강남구 자곡로 100-2",
            "CCTV_KIND": 1,
            "CCTV_LONGITUDE": "127.095746",
            "CCTV_LATITUDE": "37.47149544"
        }
    },
    {
        "pk": 31,
        "model": "safeLoad.CCTV",
        "fields": {
            "CCTV_ADDRESS_NAME": "서울특별시 강남구 밤고개로 254(율현동)",
            "CCTV_KIND": 1,
            "CCTV_LONGITUDE": "127.1068474",
            "CCTV_LATITUDE": "37.47164811"
        }
    },
    {
        "pk": 32,
        "model": "safeLoad.CCTV",
        "fields": {
            "CCTV_ADDRESS_NAME": "서울특별시 강남구 밤고개로27길 7-5(율현동)",
            "CCTV_KIND": 1,
            "CCTV_LONGITUDE": "127.1077248",
            "CCTV_LATITUDE": "37.47174102"
        }
    },
    {
        "pk": 33,
        "model": "safeLoad.CCTV",
        "fields": {
            "CCTV_ADDRESS_NAME": "서울특별시 강남구 밤고개로23길 14-31 (율현동)",
            "CCTV_KIND": 1,
            "CCTV_LONGITUDE": "127.109665",
            "CCTV_LATITUDE": "37.471746"
        }
    },
    {
        "pk": 34,
        "model": "safeLoad.CCTV",
        "fields": {
            "CCTV_ADDRESS_NAME": "서울특별시 강남구 자곡로3길 21(자곡동, LH강남힐스테이트)",
            "CCTV_KIND": 1,
            "CCTV_LONGITUDE": "127.0881179",
            "CCTV_LATITUDE": "37.47176808"
        }
    },
    {
        "pk": 35,
        "model": "safeLoad.CCTV",
        "fields": {
            "CCTV_ADDRESS_NAME": "서울특별시 강남구 양재대로 333 (개포동)",
            "CCTV_KIND": 1,
            "CCTV_LONGITUDE": "127.0510003",
            "CCTV_LATITUDE": "37.4718742"
        }
    },
    {
        "pk": 36,
        "model": "safeLoad.CCTV",
        "fields": {
            "CCTV_ADDRESS_NAME": "서울특별시 강남구 밤고개로23길 14-26(율현동)",
            "CCTV_KIND": 1,
            "CCTV_LONGITUDE": "127.1092264",
            "CCTV_LATITUDE": "37.47194"
        }
    },
    {
        "pk": 37,
        "model": "safeLoad.CCTV",
        "fields": {
            "CCTV_ADDRESS_NAME": "서울특별시 강남구 밤고개로24길 44-15 (율현동)",
            "CCTV_KIND": 1,
            "CCTV_LONGITUDE": "127.1047806",
            "CCTV_LATITUDE": "37.4719821"
        }
    },
    {
        "pk": 38,
        "model": "safeLoad.CCTV",
        "fields": {
            "CCTV_ADDRESS_NAME": "서울특별시 강남구 밤고개로23길 20-28 (율현동)",
            "CCTV_KIND": 1,
            "CCTV_LONGITUDE": "127.1095692",
            "CCTV_LATITUDE": "37.4721075"
        }
    },
    {
        "pk": 39,
        "model": "safeLoad.CCTV",
        "fields": {
            "CCTV_ADDRESS_NAME": "서울특별시 강남구 밤고개로23길 14-12 (율현동)",
            "CCTV_KIND": 1,
            "CCTV_LONGITUDE": "127.1085543",
            "CCTV_LATITUDE": "37.4727468"
        }
    },
    {
        "pk": 40,
        "model": "safeLoad.CCTV",
        "fields": {
            "CCTV_ADDRESS_NAME": "서울특별시 강남구 논현로 16 (개포동)",
            "CCTV_KIND": 1,
            "CCTV_LONGITUDE": "127.0500083",
            "CCTV_LATITUDE": "37.4728087"
        }
    },
    {
        "pk": 41,
        "model": "safeLoad.CCTV",
        "fields": {
            "CCTV_ADDRESS_NAME": "서울특별시 강남구 논현로4길 15 (개포동)",
            "CCTV_KIND": 1,
            "CCTV_LONGITUDE": "127.0513567",
            "CCTV_LATITUDE": "37.4729223"
        }
    },
    {
        "pk": 42,
        "model": "safeLoad.CCTV",
        "fields": {
            "CCTV_ADDRESS_NAME": "서울특별시 강남구 자곡로 180(자곡동)",
            "CCTV_KIND": 1,
            "CCTV_LONGITUDE": "127.10349",
            "CCTV_LATITUDE": "37.472992"
        }
    },
    {
        "pk": 43,
        "model": "safeLoad.CCTV",
        "fields": {
            "CCTV_ADDRESS_NAME": "서울특별시 강남구 개포동 1164-33",
            "CCTV_KIND": 1,
            "CCTV_LONGITUDE": "127.0532581",
            "CCTV_LATITUDE": "37.4731585"
        }
    },
    {
        "pk": 44,
        "model": "safeLoad.CCTV",
        "fields": {
            "CCTV_ADDRESS_NAME": "서울특별시 강남구 논현로4길 28 (개포동, 더샵그린아파트)",
            "CCTV_KIND": 1,
            "CCTV_LONGITUDE": "127.0523507",
            "CCTV_LATITUDE": "37.4731717"
        }
    },
    {
        "pk": 45,
        "model": "safeLoad.CCTV",
        "fields": {
            "CCTV_ADDRESS_NAME": "서울특별시 강남구 논현로4길 28 (개포동, 더샵그린아파트)",
            "CCTV_KIND": 1,
            "CCTV_LONGITUDE": "127.0523507",
            "CCTV_LATITUDE": "37.4731717"
        }
    },
    {
        "pk": 46,
        "model": "safeLoad.CCTV",
        "fields": {
            "CCTV_ADDRESS_NAME": "서울특별시 강남구 논현로2길 36 (개포동, 뉴새롬아파트)",
            "CCTV_KIND": 1,
            "CCTV_LONGITUDE": "127.0530892",
            "CCTV_LATITUDE": "37.4732407"
        }
    },
    {
        "pk": 47,
        "model": "safeLoad.CCTV",
        "fields": {
            "CCTV_ADDRESS_NAME": "서울특별시 강남구 자곡로7길 3(자곡동)",
            "CCTV_KIND": 1,
            "CCTV_LONGITUDE": "127.0997276",
            "CCTV_LATITUDE": "37.47330498"
        }
    },
    {
        "pk": 48,
        "model": "safeLoad.CCTV",
        "fields": {
            "CCTV_ADDRESS_NAME": "서울특별시 강남구 자곡로7길 3(근린공원 5호)",
            "CCTV_KIND": 1,
            "CCTV_LONGITUDE": "127.0997276",
            "CCTV_LATITUDE": "37.47330498"
        }
    },
    {
        "pk": 49,
        "model": "safeLoad.CCTV",
        "fields": {
            "CCTV_ADDRESS_NAME": "서울특별시 강남구 논현로6길 11 (개포동)",
            "CCTV_KIND": 1,
            "CCTV_LONGITUDE": "127.0504427",
            "CCTV_LATITUDE": "37.47340117"
        }
    },
    {
        "pk": 50,
        "model": "safeLoad.CCTV",
        "fields": {
            "CCTV_ADDRESS_NAME": "서울특별시 강남구 자곡로7길 22-1",
            "CCTV_KIND": 1,
            "CCTV_LONGITUDE": "127.0980908",
            "CCTV_LATITUDE": "37.47343249"
        }
    },
    {
        "pk": 51,
        "model": "safeLoad.CCTV",
        "fields": {
            "CCTV_ADDRESS_NAME": "서울특별시 강남구 논현로6길 22 (개포동)",
            "CCTV_KIND": 1,
            "CCTV_LONGITUDE": "127.0512411",
            "CCTV_LATITUDE": "37.4736575"
        }
    },
    {
        "pk": 52,
        "model": "safeLoad.CCTV",
        "fields": {
            "CCTV_ADDRESS_NAME": "서울특별시 강남구 논현로6길 30-9(개포동)",
            "CCTV_KIND": 1,
            "CCTV_LONGITUDE": "127.0523639",
            "CCTV_LATITUDE": "37.4737359"
        }
    },
    {
        "pk": 53,
        "model": "safeLoad.CCTV",
        "fields": {
            "CCTV_ADDRESS_NAME": "서울특별시 강남구 자곡로 204-19(자곡동)",
            "CCTV_KIND": 1,
            "CCTV_LONGITUDE": "127.1041024",
            "CCTV_LATITUDE": "37.4737359"
        }
    },
    {
        "pk": 54,
        "model": "safeLoad.CCTV",
        "fields": {
            "CCTV_ADDRESS_NAME": "서울특별시 강남구 밤고개로23길 22 (율현동)",
            "CCTV_KIND": 1,
            "CCTV_LONGITUDE": "127.1085808",
            "CCTV_LATITUDE": "37.4737526"
        }
    },
    {
        "pk": 55,
        "model": "safeLoad.CCTV",
        "fields": {
            "CCTV_ADDRESS_NAME": "서울특별시 강남구 논현로8길 11 (개포동)",
            "CCTV_KIND": 1,
            "CCTV_LONGITUDE": "127.0498059",
            "CCTV_LATITUDE": "37.4739695"
        }
    },
    {
        "pk": 56,
        "model": "safeLoad.CCTV",
        "fields": {
            "CCTV_ADDRESS_NAME": "서울특별시 강남구 논현로8길 46-8 (개포동)",
            "CCTV_KIND": 1,
            "CCTV_LONGITUDE": "127.0527498",
            "CCTV_LATITUDE": "37.4740616"
        }
    },
    {
        "pk": 57,
        "model": "safeLoad.CCTV",
        "fields": {
            "CCTV_ADDRESS_NAME": "서울특별시 강남구 논현로8길 46-8 (개포동)",
            "CCTV_KIND": 1,
            "CCTV_LONGITUDE": "127.0527498",
            "CCTV_LATITUDE": "37.4740616"
        }
    },
    {
        "pk": 58,
        "model": "safeLoad.CCTV",
        "fields": {
            "CCTV_ADDRESS_NAME": "서울특별시 강남구 논현로4길 50 (개포동, 포이현대빌라트)",
            "CCTV_KIND": 1,
            "CCTV_LONGITUDE": "127.0537435",
            "CCTV_LATITUDE": "37.4740704"
        }
    },
    {
        "pk": 59,
        "model": "safeLoad.CCTV",
        "fields": {
            "CCTV_ADDRESS_NAME": "서울특별시 강남구 개포동 1164-33 (지하보도 벽)",
            "CCTV_KIND": 1,
            "CCTV_LONGITUDE": "127.0556147",
            "CCTV_LATITUDE": "37.4742897"
        }
    },
    {
        "pk": 60,
        "model": "safeLoad.CCTV",
        "fields": {
            "CCTV_ADDRESS_NAME": "서울특별시 강남구 논현로8길 24 (개포동)",
            "CCTV_KIND": 1,
            "CCTV_LONGITUDE": "127.0508265",
            "CCTV_LATITUDE": "37.4743534"
        }
    },
    {
        "pk": 61,
        "model": "safeLoad.CCTV",
        "fields": {
            "CCTV_ADDRESS_NAME": "서울특별시 강남구 논현로12길 5(개포동)",
            "CCTV_KIND": 1,
            "CCTV_LONGITUDE": "127.0487765",
            "CCTV_LATITUDE": "37.4743739"
        }
    },
    {
        "pk": 62,
        "model": "safeLoad.CCTV",
        "fields": {
            "CCTV_ADDRESS_NAME": "서울특별시 강남구 논현로12길 9 (개포동)",
            "CCTV_KIND": 1,
            "CCTV_LONGITUDE": "127.0489381",
            "CCTV_LATITUDE": "37.4744653"
        }
    },
    {
        "pk": 63,
        "model": "safeLoad.CCTV",
        "fields": {
            "CCTV_ADDRESS_NAME": "서울특별시 강남구 자곡로7길 16-11 (자곡동)",
            "CCTV_KIND": 1,
            "CCTV_LONGITUDE": "127.0988293",
            "CCTV_LATITUDE": "37.47448786"
        }
    },
    {
        "pk": 64,
        "model": "safeLoad.CCTV",
        "fields": {
            "CCTV_ADDRESS_NAME": "서울특별시 강남구 논현로8길 35 (개포동)",
            "CCTV_KIND": 1,
            "CCTV_LONGITUDE": "127.0515401",
            "CCTV_LATITUDE": "37.4745096"
        }
    },
    {
        "pk": 65,
        "model": "safeLoad.CCTV",
        "fields": {
            "CCTV_ADDRESS_NAME": "서울특별시 강남구 자곡로7길 8-17 (자곡동)",
            "CCTV_KIND": 1,
            "CCTV_LONGITUDE": "127.0996795",
            "CCTV_LATITUDE": "37.47454842"
        }
    },
    {
        "pk": 66,
        "model": "safeLoad.CCTV",
        "fields": {
            "CCTV_ADDRESS_NAME": "서울특별시 강남구 밤고개로21길 15 (세곡동)",
            "CCTV_KIND": 1,
            "CCTV_LONGITUDE": "127.1082669",
            "CCTV_LATITUDE": "37.47455888"
        }
    },
    {
        "pk": 67,
        "model": "safeLoad.CCTV",
        "fields": {
            "CCTV_ADDRESS_NAME": "서울특별시 강남구 밤고개로21길 15(자곡동)",
            "CCTV_KIND": 1,
            "CCTV_LONGITUDE": "127.1082669",
            "CCTV_LATITUDE": "37.47455888"
        }
    },
    {
        "pk": 68,
        "model": "safeLoad.CCTV",
        "fields": {
            "CCTV_ADDRESS_NAME": "서울특별시 강남구 밤고개로21길 15(자곡동)",
            "CCTV_KIND": 1,
            "CCTV_LONGITUDE": "127.1082669",
            "CCTV_LATITUDE": "37.47455888"
        }
    },
    {
        "pk": 69,
        "model": "safeLoad.CCTV",
        "fields": {
            "CCTV_ADDRESS_NAME": "서울특별시 강남구 논현로2길 63(개포동, 동산빌라)",
            "CCTV_KIND": 1,
            "CCTV_LONGITUDE": "127.054952",
            "CCTV_LATITUDE": "37.4747036"
        }
    },
    {
        "pk": 70,
        "model": "safeLoad.CCTV",
        "fields": {
            "CCTV_ADDRESS_NAME": "서울특별시 강남구 자곡로 202(자곡동)",
            "CCTV_KIND": 1,
            "CCTV_LONGITUDE": "127.1050204",
            "CCTV_LATITUDE": "37.47477084"
        }
    },
    {
        "pk": 71,
        "model": "safeLoad.CCTV",
        "fields": {
            "CCTV_ADDRESS_NAME": "서울특별시 강남구 자곡로7길 22-31 (자곡동)",
            "CCTV_KIND": 1,
            "CCTV_LONGITUDE": "127.0975093",
            "CCTV_LATITUDE": "37.4747953"
        }
    },
    {
        "pk": 72,
        "model": "safeLoad.CCTV",
        "fields": {
            "CCTV_ADDRESS_NAME": "서울특별시 강남구 논현로4길 61 (개포동)",
            "CCTV_KIND": 1,
            "CCTV_LONGITUDE": "127.0542827",
            "CCTV_LATITUDE": "37.4747956"
        }
    },
    {
        "pk": 73,
        "model": "safeLoad.CCTV",
        "fields": {
            "CCTV_ADDRESS_NAME": "서울특별시 강남구 논현로12길 16 (개포동)",
            "CCTV_KIND": 1,
            "CCTV_LONGITUDE": "127.0495704",
            "CCTV_LATITUDE": "37.4748911"
        }
    },
    {
        "pk": 74,
        "model": "safeLoad.CCTV",
        "fields": {
            "CCTV_ADDRESS_NAME": "서울특별시 강남구 밤고개로21길 25(자곡동, 래미안포레)",
            "CCTV_KIND": 1,
            "CCTV_LONGITUDE": "127.1076436",
            "CCTV_LATITUDE": "37.47504599"
        }
    },
    {
        "pk": 75,
        "model": "safeLoad.CCTV",
        "fields": {
            "CCTV_ADDRESS_NAME": "서울특별시 강남구 논현로8길 62",
            "CCTV_KIND": 1,
            "CCTV_LONGITUDE": "127.0535886",
            "CCTV_LATITUDE": "37.4750613"
        }
    },
    {
        "pk": 76,
        "model": "safeLoad.CCTV",
        "fields": {
            "CCTV_ADDRESS_NAME": "서울특별시 강남구 논현로8길 66 (개포동, 꼼지하우스)",
            "CCTV_KIND": 1,
            "CCTV_LONGITUDE": "127.0538284",
            "CCTV_LATITUDE": "37.475229"
        }
    },
    {
        "pk": 77,
        "model": "safeLoad.CCTV",
        "fields": {
            "CCTV_ADDRESS_NAME": "서울특별시 강남구 논현로14길 10 (개포동)",
            "CCTV_KIND": 1,
            "CCTV_LONGITUDE": "127.0482152",
            "CCTV_LATITUDE": "37.4753055"
        }
    },
    {
        "pk": 78,
        "model": "safeLoad.CCTV",
        "fields": {
            "CCTV_ADDRESS_NAME": "서울특별시 강남구 논현로14길 5 (개포동)",
            "CCTV_KIND": 1,
            "CCTV_LONGITUDE": "127.0478216",
            "CCTV_LATITUDE": "37.4753213"
        }
    },
    {
        "pk": 79,
        "model": "safeLoad.CCTV",
        "fields": {
            "CCTV_ADDRESS_NAME": "서울특별시 강남구 개포로22길 87 (개포동)",
            "CCTV_KIND": 1,
            "CCTV_LONGITUDE": "127.0520896",
            "CCTV_LATITUDE": "37.4756728"
        }
    },
    {
        "pk": 80,
        "model": "safeLoad.CCTV",
        "fields": {
            "CCTV_ADDRESS_NAME": "서울특별시 강남구 개포로22길 87 (개포동)",
            "CCTV_KIND": 1,
            "CCTV_LONGITUDE": "127.0520896",
            "CCTV_LATITUDE": "37.4756728"
        }
    },
    {
        "pk": 81,
        "model": "safeLoad.CCTV",
        "fields": {
            "CCTV_ADDRESS_NAME": "서울특별시 강남구 개포로22길 87(개포동)",
            "CCTV_KIND": 1,
            "CCTV_LONGITUDE": "127.0520896",
            "CCTV_LATITUDE": "37.4756728"
        }
    },
    {
        "pk": 82,
        "model": "safeLoad.CCTV",
        "fields": {
            "CCTV_ADDRESS_NAME": "서울특별시 강남구 개포로22길 65 (개포동)",
            "CCTV_KIND": 1,
            "CCTV_LONGITUDE": "127.0516132",
            "CCTV_LATITUDE": "37.475978"
        }
    },
    {
        "pk": 83,
        "model": "safeLoad.CCTV",
        "fields": {
            "CCTV_ADDRESS_NAME": "서울특별시 강남구 논현로14길 17 (개포동)",
            "CCTV_KIND": 1,
            "CCTV_LONGITUDE": "127.0485775",
            "CCTV_LATITUDE": "37.4759833"
        }
    },
    {
        "pk": 84,
        "model": "safeLoad.CCTV",
        "fields": {
            "CCTV_ADDRESS_NAME": "서울특별시 강남구 개포로20길 48 (개포동)",
            "CCTV_KIND": 1,
            "CCTV_LONGITUDE": "127.0492625",
            "CCTV_LATITUDE": "37.4759943"
        }
    },
    {
        "pk": 85,
        "model": "safeLoad.CCTV",
        "fields": {
            "CCTV_ADDRESS_NAME": "서울특별시 강남구 개포로20길 48 (개포동)",
            "CCTV_KIND": 1,
            "CCTV_LONGITUDE": "127.0492625",
            "CCTV_LATITUDE": "37.4759943"
        }
    },
    {
        "pk": 86,
        "model": "safeLoad.CCTV",
        "fields": {
            "CCTV_ADDRESS_NAME": "서울특별시 강남구 개포로22길 46 (개포동)",
            "CCTV_KIND": 1,
            "CCTV_LONGITUDE": "127.0495563",
            "CCTV_LATITUDE": "37.4761795"
        }
    },
    {
        "pk": 87,
        "model": "safeLoad.CCTV",
        "fields": {
            "CCTV_ADDRESS_NAME": "서울특별시 강남구 논현로16길 9 (개포동)",
            "CCTV_KIND": 1,
            "CCTV_LONGITUDE": "127.0470417",
            "CCTV_LATITUDE": "37.4762854"
        }
    },
    {
        "pk": 88,
        "model": "safeLoad.CCTV",
        "fields": {
            "CCTV_ADDRESS_NAME": "서울특별시 강남구 논현로20길 4-34 (개포동)",
            "CCTV_KIND": 1,
            "CCTV_LONGITUDE": "127.0467765",
            "CCTV_LATITUDE": "37.4763365"
        }
    },
    {
        "pk": 89,
        "model": "safeLoad.CCTV",
        "fields": {
            "CCTV_ADDRESS_NAME": "서울특별시 강남구 논현로16길 20-5 (개포동)",
            "CCTV_KIND": 1,
            "CCTV_LONGITUDE": "127.0484066",
            "CCTV_LATITUDE": "37.4765298"
        }
    },
    {
        "pk": 90,
        "model": "safeLoad.CCTV",
        "fields": {
            "CCTV_ADDRESS_NAME": "서울특별시 강남구 개포로22길 45-13 (개포동)",
            "CCTV_KIND": 1,
            "CCTV_LONGITUDE": "127.0507592",
            "CCTV_LATITUDE": "37.4768118"
        }
    },
    {
        "pk": 91,
        "model": "safeLoad.CCTV",
        "fields": {
            "CCTV_ADDRESS_NAME": "서울특별시 강남구 논현로18길 14-19 (개포동)",
            "CCTV_KIND": 1,
            "CCTV_LONGITUDE": "127.0472366",
            "CCTV_LATITUDE": "37.4768727"
        }
    },
    {
        "pk": 92,
        "model": "safeLoad.CCTV",
        "fields": {
            "CCTV_ADDRESS_NAME": "서울특별시 강남구 개포로20길 24-7 (개포동)",
            "CCTV_KIND": 1,
            "CCTV_LONGITUDE": "127.0476479",
            "CCTV_LATITUDE": "37.476894"
        }
    },
    {
        "pk": 93,
        "model": "safeLoad.CCTV",
        "fields": {
            "CCTV_ADDRESS_NAME": "서울특별시 강남구 개포로28길 36 (개포동, 비스타그린빌)",
            "CCTV_KIND": 1,
            "CCTV_LONGITUDE": "127.0506551",
            "CCTV_LATITUDE": "37.4769065"
        }
    },
    {
        "pk": 94,
        "model": "safeLoad.CCTV",
        "fields": {
            "CCTV_ADDRESS_NAME": "서울특별시 강남구 개포로28길 47 (개포동)",
            "CCTV_KIND": 1,
            "CCTV_LONGITUDE": "127.0518862",
            "CCTV_LATITUDE": "37.477093"
        }
    },
    {
        "pk": 95,
        "model": "safeLoad.CCTV",
        "fields": {
            "CCTV_ADDRESS_NAME": "서울특별시 강남구 개포로28길 47 (개포동)",
            "CCTV_KIND": 1,
            "CCTV_LONGITUDE": "127.0518862",
            "CCTV_LATITUDE": "37.477093"
        }
    },
    {
        "pk": 96,
        "model": "safeLoad.CCTV",
        "fields": {
            "CCTV_ADDRESS_NAME": "서울특별시 강남구 개포로28길 47 (개포동)",
            "CCTV_KIND": 1,
            "CCTV_LONGITUDE": "127.0518862",
            "CCTV_LATITUDE": "37.477093"
        }
    },
    {
        "pk": 97,
        "model": "safeLoad.CCTV",
        "fields": {
            "CCTV_ADDRESS_NAME": "서울특별시 강남구 개포로28길 47 (개포동)",
            "CCTV_KIND": 1,
            "CCTV_LONGITUDE": "127.0518862",
            "CCTV_LATITUDE": "37.477093"
        }
    },
    {
        "pk": 98,
        "model": "safeLoad.CCTV",
        "fields": {
            "CCTV_ADDRESS_NAME": "서울특별시 강남구 개포로22길 39-11 (개포동)",
            "CCTV_KIND": 1,
            "CCTV_LONGITUDE": "127.0501171",
            "CCTV_LATITUDE": "37.4771644"
        }
    },
    {
        "pk": 99,
        "model": "safeLoad.CCTV",
        "fields": {
            "CCTV_ADDRESS_NAME": "서울특별시 강남구 논현로18길 10-13(개포동, 광현빌라)",
            "CCTV_KIND": 1,
            "CCTV_LONGITUDE": "127.0464638",
            "CCTV_LATITUDE": "37.4771899"
        }
    },
    {
        "pk": 100,
        "model": "safeLoad.CCTV",
        "fields": {
            "CCTV_ADDRESS_NAME": "서울특별시 강남구 개포로28길 28 (개포동, 리치타운아파트)",
            "CCTV_KIND": 1,
            "CCTV_LONGITUDE": "127.0503091",
            "CCTV_LATITUDE": "37.477266"
        }
    },
    {
        "pk": 101,
        "model": "safeLoad.CCTV",
        "fields": {
            "CCTV_ADDRESS_NAME": "서울특별시 강남구 언주로6길 21 (개포동,명스튜디오)",
            "CCTV_KIND": 1,
            "CCTV_LONGITUDE": "127.0585597",
            "CCTV_LATITUDE": "37.4773113"
        }
    },
    {
        "pk": 102,
        "model": "safeLoad.CCTV",
        "fields": {
            "CCTV_ADDRESS_NAME": "서울특별시 강남구 논현로18길 14-9 (개포동)",
            "CCTV_KIND": 1,
            "CCTV_LONGITUDE": "127.0466824",
            "CCTV_LATITUDE": "37.4774215"
        }
    },
    {
        "pk": 103,
        "model": "safeLoad.CCTV",
        "fields": {
            "CCTV_ADDRESS_NAME": "서울특별시 강남구 논현로18길 22-8",
            "CCTV_KIND": 1,
            "CCTV_LONGITUDE": "127.0470836",
            "CCTV_LATITUDE": "37.477613"
        }
    },
    {
        "pk": 104,
        "model": "safeLoad.CCTV",
        "fields": {
            "CCTV_ADDRESS_NAME": "서울특별시 강남구 언주로6길 17(개포동)",
            "CCTV_KIND": 1,
            "CCTV_LONGITUDE": "127.0586609",
            "CCTV_LATITUDE": "37.477631"
        }
    },
    {
        "pk": 105,
        "model": "safeLoad.CCTV",
        "fields": {
            "CCTV_ADDRESS_NAME": "서울특별시 강남구 개포동 1229-2",
            "CCTV_KIND": 1,
            "CCTV_LONGITUDE": "127.0452728",
            "CCTV_LATITUDE": "37.4777305"
        }
    },
    {
        "pk": 106,
        "model": "safeLoad.CCTV",
        "fields": {
            "CCTV_ADDRESS_NAME": "서울특별시 강남구 개포로24길 21 (개포동)",
            "CCTV_KIND": 1,
            "CCTV_LONGITUDE": "127.0491183",
            "CCTV_LATITUDE": "37.4777366"
        }
    },
    {
        "pk": 107,
        "model": "safeLoad.CCTV",
        "fields": {
            "CCTV_ADDRESS_NAME": "서울특별시 강남구 개포로26길 18 (개포동)",
            "CCTV_KIND": 1,
            "CCTV_LONGITUDE": "127.0492859",
            "CCTV_LATITUDE": "37.4779678"
        }
    },
    {
        "pk": 108,
        "model": "safeLoad.CCTV",
        "fields": {
            "CCTV_ADDRESS_NAME": "서울특별시 강남구 개포로20길 11 (개포동)",
            "CCTV_KIND": 1,
            "CCTV_LONGITUDE": "127.047474",
            "CCTV_LATITUDE": "37.4780343"
        }
    },
    {
        "pk": 109,
        "model": "safeLoad.CCTV",
        "fields": {
            "CCTV_ADDRESS_NAME": "서울특별시 강남구 개포로32길 19 (개포동, 베네세하우스)",
            "CCTV_KIND": 1,
            "CCTV_LONGITUDE": "127.0510353",
            "CCTV_LATITUDE": "37.4780467"
        }
    },
    {
        "pk": 110,
        "model": "safeLoad.CCTV",
        "fields": {
            "CCTV_ADDRESS_NAME": "서울특별시 강남구 논현로20길 18 (개포동)",
            "CCTV_KIND": 1,
            "CCTV_LONGITUDE": "127.0463241",
            "CCTV_LATITUDE": "37.4781259"
        }
    },
    {
        "pk": 111,
        "model": "safeLoad.CCTV",
        "fields": {
            "CCTV_ADDRESS_NAME": "서울특별시 강남구 양재대로 478(개포동)",
            "CCTV_KIND": 1,
            "CCTV_LONGITUDE": "127.0647077",
            "CCTV_LATITUDE": "37.478244"
        }
    },
    {
        "pk": 112,
        "model": "safeLoad.CCTV",
        "fields": {
            "CCTV_ADDRESS_NAME": "서울특별시 강남구 양재대로 478 (개포동)",
            "CCTV_KIND": 1,
            "CCTV_LONGITUDE": "127.0647077",
            "CCTV_LATITUDE": "37.478244"
        }
    },
    {
        "pk": 113,
        "model": "safeLoad.CCTV",
        "fields": {
            "CCTV_ADDRESS_NAME": "서울특별시 강남구 양재대로 478 (개포동)",
            "CCTV_KIND": 1,
            "CCTV_LONGITUDE": "127.0647077",
            "CCTV_LATITUDE": "37.478244"
        }
    },
    {
        "pk": 114,
        "model": "safeLoad.CCTV",
        "fields": {
            "CCTV_ADDRESS_NAME": "서울특별시 강남구 선릉로 7 (개포동,주공아파트)",
            "CCTV_KIND": 1,
            "CCTV_LONGITUDE": "127.0614839",
            "CCTV_LATITUDE": "37.478368"
        }
    },
    {
        "pk": 115,
        "model": "safeLoad.CCTV",
        "fields": {
            "CCTV_ADDRESS_NAME": "서울특별시 강남구 선릉로 7 (개포동,주공아파트)",
            "CCTV_KIND": 1,
            "CCTV_LONGITUDE": "127.0614839",
            "CCTV_LATITUDE": "37.478368"
        }
    },
    {
        "pk": 116,
        "model": "safeLoad.CCTV",
        "fields": {
            "CCTV_ADDRESS_NAME": "서울특별시 강남구 선릉로 7 (개포동)",
            "CCTV_KIND": 1,
            "CCTV_LONGITUDE": "127.0614839",
            "CCTV_LATITUDE": "37.478368"
        }
    },
    {
        "pk": 117,
        "model": "safeLoad.CCTV",
        "fields": {
            "CCTV_ADDRESS_NAME": "서울특별시 강남구 개포로24길 6 (개포동)",
            "CCTV_KIND": 1,
            "CCTV_LONGITUDE": "127.0480698",
            "CCTV_LATITUDE": "37.4783932"
        }
    },
    {
        "pk": 118,
        "model": "safeLoad.CCTV",
        "fields": {
            "CCTV_ADDRESS_NAME": "서울특별시 강남구 개포로34길 13 (개포동)",
            "CCTV_KIND": 1,
            "CCTV_LONGITUDE": "127.0511614",
            "CCTV_LATITUDE": "37.4784451"
        }
    },
    {
        "pk": 119,
        "model": "safeLoad.CCTV",
        "fields": {
            "CCTV_ADDRESS_NAME": "서울특별시 강남구 개포로 205",
            "CCTV_KIND": 1,
            "CCTV_LONGITUDE": "127.0450959",
            "CCTV_LATITUDE": "37.4785079"
        }
    },
    {
        "pk": 120,
        "model": "safeLoad.CCTV",
        "fields": {
            "CCTV_ADDRESS_NAME": "서울특별시 강남구 개포로36길 14 (개포동)",
            "CCTV_KIND": 1,
            "CCTV_LONGITUDE": "127.0512916",
            "CCTV_LATITUDE": "37.4785209"
        }
    },
    {
        "pk": 121,
        "model": "safeLoad.CCTV",
        "fields": {
            "CCTV_ADDRESS_NAME": "서울특별시 강남구 개포로 224(개포동)",
            "CCTV_KIND": 1,
            "CCTV_LONGITUDE": "127.0472823",
            "CCTV_LATITUDE": "37.4785301"
        }
    },
    {
        "pk": 122,
        "model": "safeLoad.CCTV",
        "fields": {
            "CCTV_ADDRESS_NAME": "서울특별시 강남구 개포로 217 (개포동)",
            "CCTV_KIND": 1,
            "CCTV_LONGITUDE": "127.0465321",
            "CCTV_LATITUDE": "37.4787493"
        }
    },
    {
        "pk": 123,
        "model": "safeLoad.CCTV",
        "fields": {
            "CCTV_ADDRESS_NAME": "서울특별시 강남구 개포로 240(개포동)",
            "CCTV_KIND": 1,
            "CCTV_LONGITUDE": "127.0489602",
            "CCTV_LATITUDE": "37.4787869"
        }
    },
    {
        "pk": 124,
        "model": "safeLoad.CCTV",
        "fields": {
            "CCTV_ADDRESS_NAME": "서울특별시 강남구 개포로 223",
            "CCTV_KIND": 1,
            "CCTV_LONGITUDE": "127.0472425",
            "CCTV_LATITUDE": "37.478901"
        }
    },
    {
        "pk": 125,
        "model": "safeLoad.CCTV",
        "fields": {
            "CCTV_ADDRESS_NAME": "서울특별시 강남구 언주로 25 (개포동)",
            "CCTV_KIND": 1,
            "CCTV_LONGITUDE": "127.0555459",
            "CCTV_LATITUDE": "37.4789333"
        }
    },
    {
        "pk": 126,
        "model": "safeLoad.CCTV",
        "fields": {
            "CCTV_ADDRESS_NAME": "서울특별시 강남구 개포로 233 (개포동)",
            "CCTV_KIND": 1,
            "CCTV_LONGITUDE": "127.0481063",
            "CCTV_LATITUDE": "37.4789891"
        }
    },
    {
        "pk": 127,
        "model": "safeLoad.CCTV",
        "fields": {
            "CCTV_ADDRESS_NAME": "서울특별시 강남구 개포로15길 9 (개포동)",
            "CCTV_KIND": 1,
            "CCTV_LONGITUDE": "127.0450815",
            "CCTV_LATITUDE": "37.4790169"
        }
    },
    {
        "pk": 128,
        "model": "safeLoad.CCTV",
        "fields": {
            "CCTV_ADDRESS_NAME": "서울특별시 강남구 개포로21길 10(개포동, 까사밀라)",
            "CCTV_KIND": 1,
            "CCTV_LONGITUDE": "127.0470702",
            "CCTV_LATITUDE": "37.4792934"
        }
    },
    {
        "pk": 129,
        "model": "safeLoad.CCTV",
        "fields": {
            "CCTV_ADDRESS_NAME": "서울특별시 강남구 개포로25길 8(개포동)",
            "CCTV_KIND": 1,
            "CCTV_LONGITUDE": "127.0483507",
            "CCTV_LATITUDE": "37.4794208"
        }
    },
    {
        "pk": 130,
        "model": "safeLoad.CCTV",
        "fields": {
            "CCTV_ADDRESS_NAME": "서울특별시 강남구 개포로 257 (개포동)",
            "CCTV_KIND": 1,
            "CCTV_LONGITUDE": "127.0502829",
            "CCTV_LATITUDE": "37.479431"
        }
    },
    {
        "pk": 131,
        "model": "safeLoad.CCTV",
        "fields": {
            "CCTV_ADDRESS_NAME": "서울특별시 강남구 개포로 257(개포동)",
            "CCTV_KIND": 1,
            "CCTV_LONGITUDE": "127.0502829",
            "CCTV_LATITUDE": "37.479431"
        }
    },
    {
        "pk": 132,
        "model": "safeLoad.CCTV",
        "fields": {
            "CCTV_ADDRESS_NAME": "서울특별시 강남구 개포로17길 13 (개포동)",
            "CCTV_KIND": 1,
            "CCTV_LONGITUDE": "127.0463729",
            "CCTV_LATITUDE": "37.4795337"
        }
    },
    {
        "pk": 133,
        "model": "safeLoad.CCTV",
        "fields": {
            "CCTV_ADDRESS_NAME": "서울특별시 강남구 광평로34길 124(수서동)",
            "CCTV_KIND": 1,
            "CCTV_LONGITUDE": "127.0885477",
            "CCTV_LATITUDE": "37.4795828"
        }
    },
    {
        "pk": 134,
        "model": "safeLoad.CCTV",
        "fields": {
            "CCTV_ADDRESS_NAME": "서울특별시 강남구 개포로15길 17",
            "CCTV_KIND": 1,
            "CCTV_LONGITUDE": "127.0448953",
            "CCTV_LATITUDE": "37.4796119"
        }
    },
    {
        "pk": 135,
        "model": "safeLoad.CCTV",
        "fields": {
            "CCTV_ADDRESS_NAME": "서울특별시 강남구 개포로15길 32-8 (개포동, 포이동현대아파트)",
            "CCTV_KIND": 1,
            "CCTV_LONGITUDE": "127.0459467",
            "CCTV_LATITUDE": "37.4797123"
        }
    },
    {
        "pk": 136,
        "model": "safeLoad.CCTV",
        "fields": {
            "CCTV_ADDRESS_NAME": "서울특별시 강남구 개포로31길 10 (개포동)",
            "CCTV_KIND": 1,
            "CCTV_LONGITUDE": "127.049656",
            "CCTV_LATITUDE": "37.4797341"
        }
    },
    {
        "pk": 137,
        "model": "safeLoad.CCTV",
        "fields": {
            "CCTV_ADDRESS_NAME": "서울특별시 강남구 개포로25길 13 (개포동, 아원포레스빌)",
            "CCTV_KIND": 1,
            "CCTV_LONGITUDE": "127.0479792",
            "CCTV_LATITUDE": "37.4797377"
        }
    },
    {
        "pk": 138,
        "model": "safeLoad.CCTV",
        "fields": {
            "CCTV_ADDRESS_NAME": "서울특별시 강남구 개포로 261 (개포동)",
            "CCTV_KIND": 1,
            "CCTV_LONGITUDE": "127.0511552",
            "CCTV_LATITUDE": "37.4797407"
        }
    },
    {
        "pk": 139,
        "model": "safeLoad.CCTV",
        "fields": {
            "CCTV_ADDRESS_NAME": "서울특별시 강남구 개포로21길 17 (개포동)",
            "CCTV_KIND": 1,
            "CCTV_LONGITUDE": "127.0469739",
            "CCTV_LATITUDE": "37.4798377"
        }
    },
    {
        "pk": 140,
        "model": "safeLoad.CCTV",
        "fields": {
            "CCTV_ADDRESS_NAME": "서울특별시 강남구 개포로15길 25 (개포동)",
            "CCTV_KIND": 1,
            "CCTV_LONGITUDE": "127.0454549",
            "CCTV_LATITUDE": "37.4800625"
        }
    },
    {
        "pk": 141,
        "model": "safeLoad.CCTV",
        "fields": {
            "CCTV_ADDRESS_NAME": "서울특별시 강남구 개포로21길 26 (개포동)",
            "CCTV_KIND": 1,
            "CCTV_LONGITUDE": "127.0474282",
            "CCTV_LATITUDE": "37.4804785"
        }
    },
    {
        "pk": 142,
        "model": "safeLoad.CCTV",
        "fields": {
            "CCTV_ADDRESS_NAME": "서울특별시 강남구 개포로15길 41 (개포동)",
            "CCTV_KIND": 1,
            "CCTV_LONGITUDE": "127.0465565",
            "CCTV_LATITUDE": "37.4806561"
        }
    },
    {
        "pk": 143,
        "model": "safeLoad.CCTV",
        "fields": {
            "CCTV_ADDRESS_NAME": "서울특별시 강남구 선릉로 9 (개포동)",
            "CCTV_KIND": 1,
            "CCTV_LONGITUDE": "127.0617435",
            "CCTV_LATITUDE": "37.4806642"
        }
    },
    {
        "pk": 144,
        "model": "safeLoad.CCTV",
        "fields": {
            "CCTV_ADDRESS_NAME": "서울특별시 강남구 개포로 263 (개포동)",
            "CCTV_KIND": 1,
            "CCTV_LONGITUDE": "127.051863",
            "CCTV_LATITUDE": "37.4807232"
        }
    },
    {
        "pk": 145,
        "model": "safeLoad.CCTV",
        "fields": {
            "CCTV_ADDRESS_NAME": "서울특별시 강남구 개포로 263 (개포동)",
            "CCTV_KIND": 1,
            "CCTV_LONGITUDE": "127.051863",
            "CCTV_LATITUDE": "37.4807232"
        }
    },
    {
        "pk": 146,
        "model": "safeLoad.CCTV",
        "fields": {
            "CCTV_ADDRESS_NAME": "서울특별시 강남구 광평로20길 63 (일원동)",
            "CCTV_KIND": 1,
            "CCTV_LONGITUDE": "127.084375",
            "CCTV_LATITUDE": "37.4807426"
        }
    },
    {
        "pk": 147,
        "model": "safeLoad.CCTV",
        "fields": {
            "CCTV_ADDRESS_NAME": "서울특별시 강남구 개포로 265 (개포동)",
            "CCTV_KIND": 1,
            "CCTV_LONGITUDE": "127.0530065",
            "CCTV_LATITUDE": "37.4807801"
        }
    },
    {
        "pk": 148,
        "model": "safeLoad.CCTV",
        "fields": {
            "CCTV_ADDRESS_NAME": "서울특별시 강남구 광평로34길 55(수서동, 강남데시앙포레아파트)",
            "CCTV_KIND": 1,
            "CCTV_LONGITUDE": "127.0923661",
            "CCTV_LATITUDE": "37.48085061"
        }
    },
    {
        "pk": 149,
        "model": "safeLoad.CCTV",
        "fields": {
            "CCTV_ADDRESS_NAME": "서울특별시 강남구 광평로34길 55(수서동, 강남데시앙포레아파트)",
            "CCTV_KIND": 1,
            "CCTV_LONGITUDE": "127.0923661",
            "CCTV_LATITUDE": "37.48085061"
        }
    },
    {
        "pk": 150,
        "model": "safeLoad.CCTV",
        "fields": {
            "CCTV_ADDRESS_NAME": "서울특별시 강남구 개포로25길 28 (개포동)",
            "CCTV_KIND": 1,
            "CCTV_LONGITUDE": "127.048141",
            "CCTV_LATITUDE": "37.4808861"
        }
    },
    {
        "pk": 151,
        "model": "safeLoad.CCTV",
        "fields": {
            "CCTV_ADDRESS_NAME": "서울특별시 강남구 개포로31길 31",
            "CCTV_KIND": 1,
            "CCTV_LONGITUDE": "127.0486547",
            "CCTV_LATITUDE": "37.4809506"
        }
    },
    {
        "pk": 152,
        "model": "safeLoad.CCTV",
        "fields": {
            "CCTV_ADDRESS_NAME": "서울특별시 강남구 광평로10길 14-41(일원동)",
            "CCTV_KIND": 1,
            "CCTV_LONGITUDE": "127.0768518",
            "CCTV_LATITUDE": "37.480994"
        }
    },
    {
        "pk": 153,
        "model": "safeLoad.CCTV",
        "fields": {
            "CCTV_ADDRESS_NAME": "서울특별시 강남구 광평로10길 14-41 (일원동)",
            "CCTV_KIND": 1,
            "CCTV_LONGITUDE": "127.0768518",
            "CCTV_LATITUDE": "37.480994"
        }
    },
    {
        "pk": 154,
        "model": "safeLoad.CCTV",
        "fields": {
            "CCTV_ADDRESS_NAME": "서울특별시 강남구 광평로10길 14-41 (일원동)",
            "CCTV_KIND": 1,
            "CCTV_LONGITUDE": "127.0768518",
            "CCTV_LATITUDE": "37.480994"
        }
    },
    {
        "pk": 155,
        "model": "safeLoad.CCTV",
        "fields": {
            "CCTV_ADDRESS_NAME": "서울특별시 강남구 광평로10길 14-41(일원동)",
            "CCTV_KIND": 1,
            "CCTV_LONGITUDE": "127.0768518",
            "CCTV_LATITUDE": "37.480994"
        }
    },
    {
        "pk": 156,
        "model": "safeLoad.CCTV",
        "fields": {
            "CCTV_ADDRESS_NAME": "서울특별시 강남구 양재천로 163 (도곡동)",
            "CCTV_KIND": 1,
            "CCTV_LONGITUDE": "127.0439972",
            "CCTV_LATITUDE": "37.4812419"
        }
    },
    {
        "pk": 157,
        "model": "safeLoad.CCTV",
        "fields": {
            "CCTV_ADDRESS_NAME": "서울특별시 강남구 선릉로 29 (개포동)",
            "CCTV_KIND": 1,
            "CCTV_LONGITUDE": "127.058657",
            "CCTV_LATITUDE": "37.4812767"
        }
    },
    {
        "pk": 158,
        "model": "safeLoad.CCTV",
        "fields": {
            "CCTV_ADDRESS_NAME": "서울특별시 강남구 선릉로 29 (개포동)",
            "CCTV_KIND": 1,
            "CCTV_LONGITUDE": "127.058657",
            "CCTV_LATITUDE": "37.4812767"
        }
    },
    {
        "pk": 159,
        "model": "safeLoad.CCTV",
        "fields": {
            "CCTV_ADDRESS_NAME": "서울특별시 강남구 광평로20길 27(일원본동)",
            "CCTV_KIND": 1,
            "CCTV_LONGITUDE": "127.0865193",
            "CCTV_LATITUDE": "37.4814341"
        }
    },
    {
        "pk": 160,
        "model": "safeLoad.CCTV",
        "fields": {
            "CCTV_ADDRESS_NAME": "서울특별시 강남구 개포로25길 32(개포동)",
            "CCTV_KIND": 1,
            "CCTV_LONGITUDE": "127.0485164",
            "CCTV_LATITUDE": "37.4815135"
        }
    },
    {
        "pk": 161,
        "model": "safeLoad.CCTV",
        "fields": {
            "CCTV_ADDRESS_NAME": "서울특별시 강남구 밤고개로12길 60-8(자곡동)",
            "CCTV_KIND": 1,
            "CCTV_LONGITUDE": "127.099999",
            "CCTV_LATITUDE": "37.4816484"
        }
    },
    {
        "pk": 162,
        "model": "safeLoad.CCTV",
        "fields": {
            "CCTV_ADDRESS_NAME": "서울특별시 강남구 광평로10길 6 (일원동, 한솔마을아파트)",
            "CCTV_KIND": 1,
            "CCTV_LONGITUDE": "127.0777022",
            "CCTV_LATITUDE": "37.4818107"
        }
    },
    {
        "pk": 163,
        "model": "safeLoad.CCTV",
        "fields": {
            "CCTV_ADDRESS_NAME": "서울특별시 강남구 광평로10길 6(일원동, 한솔마을아파트)",
            "CCTV_KIND": 1,
            "CCTV_LONGITUDE": "127.0777022",
            "CCTV_LATITUDE": "37.4818107"
        }
    },
    {
        "pk": 164,
        "model": "safeLoad.CCTV",
        "fields": {
            "CCTV_ADDRESS_NAME": "서울특별시 강남구 광평로10길 15 (일원동, 상록수아파트)",
            "CCTV_KIND": 1,
            "CCTV_LONGITUDE": "127.082142",
            "CCTV_LATITUDE": "37.4819336"
        }
    },
    {
        "pk": 165,
        "model": "safeLoad.CCTV",
        "fields": {
            "CCTV_ADDRESS_NAME": "서울특별시 강남구 개포로31길 48(개포동)",
            "CCTV_KIND": 1,
            "CCTV_LONGITUDE": "127.0488876",
            "CCTV_LATITUDE": "37.4819337"
        }
    },
    {
        "pk": 166,
        "model": "safeLoad.CCTV",
        "fields": {
            "CCTV_ADDRESS_NAME": "서울특별시 강남구 논현로26길 10 (도곡동)",
            "CCTV_KIND": 1,
            "CCTV_LONGITUDE": "127.0438864",
            "CCTV_LATITUDE": "37.48207871"
        }
    },
    {
        "pk": 167,
        "model": "safeLoad.CCTV",
        "fields": {
            "CCTV_ADDRESS_NAME": "서울특별시 강남구 언주로 201(도곡동)",
            "CCTV_KIND": 1,
            "CCTV_LONGITUDE": "127.0525211",
            "CCTV_LATITUDE": "37.4821026"
        }
    },
    {
        "pk": 168,
        "model": "safeLoad.CCTV",
        "fields": {
            "CCTV_ADDRESS_NAME": "서울특별시 강남구 광평로34길 35(수서동, 강남더샵포레스트아파트)",
            "CCTV_KIND": 1,
            "CCTV_LONGITUDE": "127.0948369",
            "CCTV_LATITUDE": "37.48211007"
        }
    },
    {
        "pk": 169,
        "model": "safeLoad.CCTV",
        "fields": {
            "CCTV_ADDRESS_NAME": "서울특별시 강남구 개포동 1279 (양재천 계단 앞)",
            "CCTV_KIND": 1,
            "CCTV_LONGITUDE": "127.0483345",
            "CCTV_LATITUDE": "37.4822046"
        }
    },
    {
        "pk": 170,
        "model": "safeLoad.CCTV",
        "fields": {
            "CCTV_ADDRESS_NAME": "서울특별시 강남구 양재천로 181 (도곡동)",
            "CCTV_KIND": 1,
            "CCTV_LONGITUDE": "127.0457453",
            "CCTV_LATITUDE": "37.4822958"
        }
    },
    {
        "pk": 171,
        "model": "safeLoad.CCTV",
        "fields": {
            "CCTV_ADDRESS_NAME": "서울특별시 강남구 개포동 1267-1",
            "CCTV_KIND": 1,
            "CCTV_LONGITUDE": "127.0496574",
            "CCTV_LATITUDE": "37.4824143"
        }
    },
    {
        "pk": 172,
        "model": "safeLoad.CCTV",
        "fields": {
            "CCTV_ADDRESS_NAME": "서울특별시 강남구 광평로20길 17 (수서동)",
            "CCTV_KIND": 1,
            "CCTV_LONGITUDE": "127.0871484",
            "CCTV_LATITUDE": "37.4824211"
        }
    },
    {
        "pk": 173,
        "model": "safeLoad.CCTV",
        "fields": {
            "CCTV_ADDRESS_NAME": "서울특별시 강남구 선릉로 30 (개포동)",
            "CCTV_KIND": 1,
            "CCTV_LONGITUDE": "127.0611639",
            "CCTV_LATITUDE": "37.4824356"
        }
    },
    {
        "pk": 174,
        "model": "safeLoad.CCTV",
        "fields": {
            "CCTV_ADDRESS_NAME": "서울특별시 강남구 논현로26길 22 (도곡동)",
            "CCTV_KIND": 1,
            "CCTV_LONGITUDE": "127.0444804",
            "CCTV_LATITUDE": "37.4825379"
        }
    },
    {
        "pk": 175,
        "model": "safeLoad.CCTV",
        "fields": {
            "CCTV_ADDRESS_NAME": "서울특별시 강남구 개포로 303 (개포동,현대1차아파트)",
            "CCTV_KIND": 1,
            "CCTV_LONGITUDE": "127.0544891",
            "CCTV_LATITUDE": "37.4825481"
        }
    },
    {
        "pk": 176,
        "model": "safeLoad.CCTV",
        "fields": {
            "CCTV_ADDRESS_NAME": "서울특별시 강남구 개포로 303 (개포동,현대1차아파트)",
            "CCTV_KIND": 1,
            "CCTV_LONGITUDE": "127.0544891",
            "CCTV_LATITUDE": "37.4825481"
        }
    },
    {
        "pk": 177,
        "model": "safeLoad.CCTV",
        "fields": {
            "CCTV_ADDRESS_NAME": "서울특별시 강남구 논현로 144 (도곡동)",
            "CCTV_KIND": 1,
            "CCTV_LONGITUDE": "127.042925",
            "CCTV_LATITUDE": "37.4826821"
        }
    },
    {
        "pk": 178,
        "model": "safeLoad.CCTV",
        "fields": {
            "CCTV_ADDRESS_NAME": "서울특별시 강남구 광평로 61 (일원동)",
            "CCTV_KIND": 1,
            "CCTV_LONGITUDE": "127.07936",
            "CCTV_LATITUDE": "37.4828103"
        }
    },
    {
        "pk": 179,
        "model": "safeLoad.CCTV",
        "fields": {
            "CCTV_ADDRESS_NAME": "서울특별시 강남구 선릉로4길 17 (개포동)",
            "CCTV_KIND": 1,
            "CCTV_LONGITUDE": "127.062361",
            "CCTV_LATITUDE": "37.482819"
        }
    },
    {
        "pk": 180,
        "model": "safeLoad.CCTV",
        "fields": {
            "CCTV_ADDRESS_NAME": "서울특별시 강남구 광평로1길 3 (일원동)",
            "CCTV_KIND": 1,
            "CCTV_LONGITUDE": "127.0778034",
            "CCTV_LATITUDE": "37.4828712"
        }
    },
    {
        "pk": 181,
        "model": "safeLoad.CCTV",
        "fields": {
            "CCTV_ADDRESS_NAME": "서울특별시 강남구 개포로 310 (개포동,개포주공1차아파트)",
            "CCTV_KIND": 1,
            "CCTV_LONGITUDE": "127.0589875",
            "CCTV_LATITUDE": "37.4829571"
        }
    },
    {
        "pk": 182,
        "model": "safeLoad.CCTV",
        "fields": {
            "CCTV_ADDRESS_NAME": "서울특별시 강남구 개포로 310 (개포동,개포주공1차아파트)",
            "CCTV_KIND": 1,
            "CCTV_LONGITUDE": "127.0589875",
            "CCTV_LATITUDE": "37.4829571"
        }
    },
    {
        "pk": 183,
        "model": "safeLoad.CCTV",
        "fields": {
            "CCTV_ADDRESS_NAME": "서울특별시 강남구 개포로 310 (개포동,개포주공1차아파트)",
            "CCTV_KIND": 1,
            "CCTV_LONGITUDE": "127.0589875",
            "CCTV_LATITUDE": "37.4829571"
        }
    },
    {
        "pk": 184,
        "model": "safeLoad.CCTV",
        "fields": {
            "CCTV_ADDRESS_NAME": "서울특별시 강남구 개포로 310 (개포동,개포주공1차아파트)",
            "CCTV_KIND": 1,
            "CCTV_LONGITUDE": "127.0589875",
            "CCTV_LATITUDE": "37.4829571"
        }
    },
    {
        "pk": 185,
        "model": "safeLoad.CCTV",
        "fields": {
            "CCTV_ADDRESS_NAME": "서울특별시 강남구 개포로 310 (개포동,개포주공1차아파트)",
            "CCTV_KIND": 1,
            "CCTV_LONGITUDE": "127.0589875",
            "CCTV_LATITUDE": "37.4829571"
        }
    },
    {
        "pk": 186,
        "model": "safeLoad.CCTV",
        "fields": {
            "CCTV_ADDRESS_NAME": "서울특별시 강남구 개포로 310 (개포동,개포주공1차아파트)",
            "CCTV_KIND": 1,
            "CCTV_LONGITUDE": "127.0589875",
            "CCTV_LATITUDE": "37.4829571"
        }
    },
    {
        "pk": 187,
        "model": "safeLoad.CCTV",
        "fields": {
            "CCTV_ADDRESS_NAME": "서울특별시 강남구 개포로 310 (개포동,개포주공1차아파트)",
            "CCTV_KIND": 1,
            "CCTV_LONGITUDE": "127.0589875",
            "CCTV_LATITUDE": "37.4829571"
        }
    },
    {
        "pk": 188,
        "model": "safeLoad.CCTV",
        "fields": {
            "CCTV_ADDRESS_NAME": "서울특별시 강남구 개포로 310 (개포동, 개포주공1차아파트)",
            "CCTV_KIND": 1,
            "CCTV_LONGITUDE": "127.0589875",
            "CCTV_LATITUDE": "37.4829571"
        }
    },
    {
        "pk": 189,
        "model": "safeLoad.CCTV",
        "fields": {
            "CCTV_ADDRESS_NAME": "서울특별시 강남구 선릉로 36(개포동)",
            "CCTV_KIND": 1,
            "CCTV_LONGITUDE": "127.060488",
            "CCTV_LATITUDE": "37.4829591"
        }
    },
    {
        "pk": 190,
        "model": "safeLoad.CCTV",
        "fields": {
            "CCTV_ADDRESS_NAME": "서울특별시 강남구 논현로26길 28 (도곡동)",
            "CCTV_KIND": 1,
            "CCTV_LONGITUDE": "127.0448141",
            "CCTV_LATITUDE": "37.4829722"
        }
    },
    {
        "pk": 191,
        "model": "safeLoad.CCTV",
        "fields": {
            "CCTV_ADDRESS_NAME": "서울특별시 강남구 선릉로4길 30 (개포동)",
            "CCTV_KIND": 1,
            "CCTV_LONGITUDE": "127.063861",
            "CCTV_LATITUDE": "37.4830336"
        }
    },
    {
        "pk": 192,
        "model": "safeLoad.CCTV",
        "fields": {
            "CCTV_ADDRESS_NAME": "서울특별시 강남구 선릉로4길 30 (개포동)",
            "CCTV_KIND": 1,
            "CCTV_LONGITUDE": "127.063861",
            "CCTV_LATITUDE": "37.4830336"
        }
    },
    {
        "pk": 193,
        "model": "safeLoad.CCTV",
        "fields": {
            "CCTV_ADDRESS_NAME": "서울특별시 강남구 선릉로4길 30(개포근린공원 내)",
            "CCTV_KIND": 1,
            "CCTV_LONGITUDE": "127.063861",
            "CCTV_LATITUDE": "37.4830336"
        }
    },
    {
        "pk": 194,
        "model": "safeLoad.CCTV",
        "fields": {
            "CCTV_ADDRESS_NAME": "서울특별시 강남구 선릉로4길 30(개포근린공원 내)",
            "CCTV_KIND": 1,
            "CCTV_LONGITUDE": "127.063861",
            "CCTV_LATITUDE": "37.4830336"
        }
    },
    {
        "pk": 195,
        "model": "safeLoad.CCTV",
        "fields": {
            "CCTV_ADDRESS_NAME": "서울특별시 강남구 선릉로4길 30(개포근린공원 내)",
            "CCTV_KIND": 1,
            "CCTV_LONGITUDE": "127.063861",
            "CCTV_LATITUDE": "37.4830336"
        }
    },
    {
        "pk": 196,
        "model": "safeLoad.CCTV",
        "fields": {
            "CCTV_ADDRESS_NAME": "서울특별시 강남구 광평로1길 9 (일원동)",
            "CCTV_KIND": 1,
            "CCTV_LONGITUDE": "127.0777411",
            "CCTV_LATITUDE": "37.483159"
        }
    },
    {
        "pk": 197,
        "model": "safeLoad.CCTV",
        "fields": {
            "CCTV_ADDRESS_NAME": "서울특별시 강남구 논현로26길 42-8 (도곡동, 예원아트빌)",
            "CCTV_KIND": 1,
            "CCTV_LONGITUDE": "127.045709",
            "CCTV_LATITUDE": "37.4832831"
        }
    },
    {
        "pk": 198,
        "model": "safeLoad.CCTV",
        "fields": {
            "CCTV_ADDRESS_NAME": "서울특별시 강남구 선릉로4길 25 (개포동)",
            "CCTV_KIND": 1,
            "CCTV_LONGITUDE": "127.0628266",
            "CCTV_LATITUDE": "37.4832948"
        }
    },
    {
        "pk": 199,
        "model": "safeLoad.CCTV",
        "fields": {
            "CCTV_ADDRESS_NAME": "서울특별시 강남구 양재천로 199 (도곡동)",
            "CCTV_KIND": 1,
            "CCTV_LONGITUDE": "127.0469073",
            "CCTV_LATITUDE": "37.4833009"
        }
    },
    {
        "pk": 200,
        "model": "safeLoad.CCTV",
        "fields": {
            "CCTV_ADDRESS_NAME": "서울특별시 강남구 양재천로 199 (도곡동)",
            "CCTV_KIND": 1,
            "CCTV_LONGITUDE": "127.0469073",
            "CCTV_LATITUDE": "37.4833009"
        }
    },
    {
        "pk": 201,
        "model": "safeLoad.CCTV",
        "fields": {
            "CCTV_ADDRESS_NAME": "서울특별시 강남구 논현로26길 34 (도곡동)",
            "CCTV_KIND": 1,
            "CCTV_LONGITUDE": "127.0450947",
            "CCTV_LATITUDE": "37.4833096"
        }
    },
    {
        "pk": 202,
        "model": "safeLoad.CCTV",
        "fields": {
            "CCTV_ADDRESS_NAME": "서울특별시 강남구 광평로20길 7",
            "CCTV_KIND": 1,
            "CCTV_LONGITUDE": "127.0873271",
            "CCTV_LATITUDE": "37.483438"
        }
    },
    {
        "pk": 203,
        "model": "safeLoad.CCTV",
        "fields": {
            "CCTV_ADDRESS_NAME": "서울특별시 강남구 선릉로8길 26 (개포동)",
            "CCTV_KIND": 1,
            "CCTV_LONGITUDE": "127.0625485",
            "CCTV_LATITUDE": "37.4835594"
        }
    },
    {
        "pk": 204,
        "model": "safeLoad.CCTV",
        "fields": {
            "CCTV_ADDRESS_NAME": "서울특별시 강남구 논현로28길 25 (도곡동)",
            "CCTV_KIND": 1,
            "CCTV_LONGITUDE": "127.0438463",
            "CCTV_LATITUDE": "37.4835852"
        }
    },
    {
        "pk": 205,
        "model": "safeLoad.CCTV",
        "fields": {
            "CCTV_ADDRESS_NAME": "서울특별시 강남구 선릉로12길 12 (개포동)",
            "CCTV_KIND": 1,
            "CCTV_LONGITUDE": "127.0608782",
            "CCTV_LATITUDE": "37.4836677"
        }
    },
    {
        "pk": 206,
        "model": "safeLoad.CCTV",
        "fields": {
            "CCTV_ADDRESS_NAME": "서울특별시 강남구 남부순환로378길 34-9 (도곡동)",
            "CCTV_KIND": 1,
            "CCTV_LONGITUDE": "127.0464243",
            "CCTV_LATITUDE": "37.4836763"
        }
    },
    {
        "pk": 207,
        "model": "safeLoad.CCTV",
        "fields": {
            "CCTV_ADDRESS_NAME": "서울특별시 강남구 삼성로 11 (개포동, 주공아파트)",
            "CCTV_KIND": 1,
            "CCTV_LONGITUDE": "127.068445",
            "CCTV_LATITUDE": "37.48368885"
        }
    },
    {
        "pk": 208,
        "model": "safeLoad.CCTV",
        "fields": {
            "CCTV_ADDRESS_NAME": "서울특별시 강남구 삼성로 11 (개포동, 주공아파트)",
            "CCTV_KIND": 1,
            "CCTV_LONGITUDE": "127.068445",
            "CCTV_LATITUDE": "37.48368885"
        }
    },
    {
        "pk": 209,
        "model": "safeLoad.CCTV",
        "fields": {
            "CCTV_ADDRESS_NAME": "서울특별시 강남구 일원로14길 25 (일원동, 푸른마을아파트)",
            "CCTV_KIND": 1,
            "CCTV_LONGITUDE": "127.0808507",
            "CCTV_LATITUDE": "37.4837968"
        }
    },
    {
        "pk": 210,
        "model": "safeLoad.CCTV",
        "fields": {
            "CCTV_ADDRESS_NAME": "서울특별시 강남구 개포로 307 (개포동)",
            "CCTV_KIND": 1,
            "CCTV_LONGITUDE": "127.0561699",
            "CCTV_LATITUDE": "37.4839447"
        }
    },
    {
        "pk": 211,
        "model": "safeLoad.CCTV",
        "fields": {
            "CCTV_ADDRESS_NAME": "서울특별시 강남구 광평로7길 18 (일원동)",
            "CCTV_KIND": 1,
            "CCTV_LONGITUDE": "127.0792429",
            "CCTV_LATITUDE": "37.4839673"
        }
    },
    {
        "pk": 212,
        "model": "safeLoad.CCTV",
        "fields": {
            "CCTV_ADDRESS_NAME": "서울특별시 강남구 선릉로18길 8 (개포동)",
            "CCTV_KIND": 1,
            "CCTV_LONGITUDE": "127.0598265",
            "CCTV_LATITUDE": "37.4840441"
        }
    },
    {
        "pk": 213,
        "model": "safeLoad.CCTV",
        "fields": {
            "CCTV_ADDRESS_NAME": "서울특별시 강남구 광평로3길 21 (일원동)",
            "CCTV_KIND": 1,
            "CCTV_LONGITUDE": "127.0779528",
            "CCTV_LATITUDE": "37.4840536"
        }
    },
    {
        "pk": 214,
        "model": "safeLoad.CCTV",
        "fields": {
            "CCTV_ADDRESS_NAME": "서울특별시 강남구 광평로3길 21 (일원동)",
            "CCTV_KIND": 1,
            "CCTV_LONGITUDE": "127.0779528",
            "CCTV_LATITUDE": "37.4840536"
        }
    },
    {
        "pk": 215,
        "model": "safeLoad.CCTV",
        "fields": {
            "CCTV_ADDRESS_NAME": "서울특별시 강남구 선릉로10길 23 (개포동)",
            "CCTV_KIND": 1,
            "CCTV_LONGITUDE": "127.0616305",
            "CCTV_LATITUDE": "37.4840891"
        }
    },
    {
        "pk": 216,
        "model": "safeLoad.CCTV",
        "fields": {
            "CCTV_ADDRESS_NAME": "서울특별시 강남구 논현로30길 25 (도곡동)",
            "CCTV_KIND": 1,
            "CCTV_LONGITUDE": "127.0438703",
            "CCTV_LATITUDE": "37.4840945"
        }
    },
    {
        "pk": 217,
        "model": "safeLoad.CCTV",
        "fields": {
            "CCTV_ADDRESS_NAME": "서울특별시 강남구 선릉로10길 28 (개포동, 우성파크빌라)",
            "CCTV_KIND": 1,
            "CCTV_LONGITUDE": "127.0620926",
            "CCTV_LATITUDE": "37.4841207"
        }
    },
    {
        "pk": 218,
        "model": "safeLoad.CCTV",
        "fields": {
            "CCTV_ADDRESS_NAME": "서울특별시 강남구 남부순환로370길 21 (도곡동, 도곡현대연립)",
            "CCTV_KIND": 1,
            "CCTV_LONGITUDE": "127.0429332",
            "CCTV_LATITUDE": "37.484168"
        }
    },
    {
        "pk": 219,
        "model": "safeLoad.CCTV",
        "fields": {
            "CCTV_ADDRESS_NAME": "서울특별시 강남구 일원로 120 (일원동)",
            "CCTV_KIND": 1,
            "CCTV_LONGITUDE": "127.082553",
            "CCTV_LATITUDE": "37.4842931"
        }
    },
    {
        "pk": 220,
        "model": "safeLoad.CCTV",
        "fields": {
            "CCTV_ADDRESS_NAME": "서울특별시 강남구 언주로 110 (개포동,경남아파트)",
            "CCTV_KIND": 1,
            "CCTV_LONGITUDE": "127.054267",
            "CCTV_LATITUDE": "37.4843872"
        }
    },
    {
        "pk": 221,
        "model": "safeLoad.CCTV",
        "fields": {
            "CCTV_ADDRESS_NAME": "서울특별시 강남구 남부순환로378길 29 (도곡동)",
            "CCTV_KIND": 1,
            "CCTV_LONGITUDE": "127.0468249",
            "CCTV_LATITUDE": "37.4845355"
        }
    },
    {
        "pk": 222,
        "model": "safeLoad.CCTV",
        "fields": {
            "CCTV_ADDRESS_NAME": "서울특별시 강남구 남부순환로378길 29 (도곡동)",
            "CCTV_KIND": 1,
            "CCTV_LONGITUDE": "127.0468249",
            "CCTV_LATITUDE": "37.4845355"
        }
    },
    {
        "pk": 223,
        "model": "safeLoad.CCTV",
        "fields": {
            "CCTV_ADDRESS_NAME": "서울특별시 강남구 남부순환로378길 29(도곡동)",
            "CCTV_KIND": 1,
            "CCTV_LONGITUDE": "127.0468249",
            "CCTV_LATITUDE": "37.4845355"
        }
    },
    {
        "pk": 224,
        "model": "safeLoad.CCTV",
        "fields": {
            "CCTV_ADDRESS_NAME": "서울특별시 강남구 남부순환로370길 13 (도곡동)",
            "CCTV_KIND": 1,
            "CCTV_LONGITUDE": "127.0425435",
            "CCTV_LATITUDE": "37.4845775"
        }
    },
    {
        "pk": 225,
        "model": "safeLoad.CCTV",
        "fields": {
            "CCTV_ADDRESS_NAME": "서울특별시 강남구 논현로34길 32 (도곡동)",
            "CCTV_KIND": 1,
            "CCTV_LONGITUDE": "127.0445542",
            "CCTV_LATITUDE": "37.4846433"
        }
    },
    {
        "pk": 226,
        "model": "safeLoad.CCTV",
        "fields": {
            "CCTV_ADDRESS_NAME": "서울특별시 강남구 개포로 402 (개포동)",
            "CCTV_KIND": 1,
            "CCTV_LONGITUDE": "127.0596014",
            "CCTV_LATITUDE": "37.4846776"
        }
    },
    {
        "pk": 227,
        "model": "safeLoad.CCTV",
        "fields": {
            "CCTV_ADDRESS_NAME": "서울특별시 강남구 개포로 402 (개포동)",
            "CCTV_KIND": 1,
            "CCTV_LONGITUDE": "127.0596014",
            "CCTV_LATITUDE": "37.4846776"
        }
    },
    {
        "pk": 228,
        "model": "safeLoad.CCTV",
        "fields": {
            "CCTV_ADDRESS_NAME": "서울특별시 강남구 광평로46길 26 (수서동)",
            "CCTV_KIND": 1,
            "CCTV_LONGITUDE": "127.1000994",
            "CCTV_LATITUDE": "37.4847713"
        }
    },
    {
        "pk": 229,
        "model": "safeLoad.CCTV",
        "fields": {
            "CCTV_ADDRESS_NAME": "서울특별시 강남구 광평로31길 27 (수서동, 삼성아파트)",
            "CCTV_KIND": 1,
            "CCTV_LONGITUDE": "127.09066",
            "CCTV_LATITUDE": "37.4848802"
        }
    },
    {
        "pk": 230,
        "model": "safeLoad.CCTV",
        "fields": {
            "CCTV_ADDRESS_NAME": "서울특별시 강남구 남부순환로370길 9 (도곡동)",
            "CCTV_KIND": 1,
            "CCTV_LONGITUDE": "127.0424794",
            "CCTV_LATITUDE": "37.484905"
        }
    },
    {
        "pk": 231,
        "model": "safeLoad.CCTV",
        "fields": {
            "CCTV_ADDRESS_NAME": "서울특별시 강남구 논현로 172(도곡동)",
            "CCTV_KIND": 1,
            "CCTV_LONGITUDE": "127.0419489",
            "CCTV_LATITUDE": "37.4849196"
        }
    },
    {
        "pk": 232,
        "model": "safeLoad.CCTV",
        "fields": {
            "CCTV_ADDRESS_NAME": "서울특별시 강남구 선릉로18길 15 (개포동)",
            "CCTV_KIND": 1,
            "CCTV_LONGITUDE": "127.0611089",
            "CCTV_LATITUDE": "37.4849328"
        }
    },
    {
        "pk": 233,
        "model": "safeLoad.CCTV",
        "fields": {
            "CCTV_ADDRESS_NAME": "서울특별시 강남구 개포로 410(개포2동)",
            "CCTV_KIND": 1,
            "CCTV_LONGITUDE": "127.0644798",
            "CCTV_LATITUDE": "37.48493808"
        }
    },
    {
        "pk": 234,
        "model": "safeLoad.CCTV",
        "fields": {
            "CCTV_ADDRESS_NAME": "서울특별시 강남구 광평로19길 15 (일원동, 목련타운아파트)",
            "CCTV_KIND": 1,
            "CCTV_LONGITUDE": "127.0851548",
            "CCTV_LATITUDE": "37.4849458"
        }
    },
    {
        "pk": 235,
        "model": "safeLoad.CCTV",
        "fields": {
            "CCTV_ADDRESS_NAME": "서울특별시 강남구 광평로 226-5 (수서동)",
            "CCTV_KIND": 1,
            "CCTV_LONGITUDE": "127.0979926",
            "CCTV_LATITUDE": "37.4849859"
        }
    },
    {
        "pk": 236,
        "model": "safeLoad.CCTV",
        "fields": {
            "CCTV_ADDRESS_NAME": "서울특별시 강남구 논현로30길 47 (도곡동)",
            "CCTV_KIND": 1,
            "CCTV_LONGITUDE": "127.0453779",
            "CCTV_LATITUDE": "37.4850465"
        }
    },
    {
        "pk": 237,
        "model": "safeLoad.CCTV",
        "fields": {
            "CCTV_ADDRESS_NAME": "서울특별시 강남구 강남대로 240 (도곡동)",
            "CCTV_KIND": 1,
            "CCTV_LONGITUDE": "127.0344078",
            "CCTV_LATITUDE": "37.4852042"
        }
    },
    {
        "pk": 238,
        "model": "safeLoad.CCTV",
        "fields": {
            "CCTV_ADDRESS_NAME": "서울특별시 강남구 강남대로 240(도곡동)",
            "CCTV_KIND": 1,
            "CCTV_LONGITUDE": "127.0344078",
            "CCTV_LATITUDE": "37.4852042"
        }
    },
    {
        "pk": 239,
        "model": "safeLoad.CCTV",
        "fields": {
            "CCTV_ADDRESS_NAME": "서울특별시 강남구 남부순환로 2621 (도곡동)",
            "CCTV_KIND": 1,
            "CCTV_LONGITUDE": "127.0367026",
            "CCTV_LATITUDE": "37.4852655"
        }
    },
    {
        "pk": 240,
        "model": "safeLoad.CCTV",
        "fields": {
            "CCTV_ADDRESS_NAME": "서울특별시 강남구 남부순환로 2629 (도곡동)",
            "CCTV_KIND": 1,
            "CCTV_LONGITUDE": "127.037348",
            "CCTV_LATITUDE": "37.4852741"
        }
    },
    {
        "pk": 241,
        "model": "safeLoad.CCTV",
        "fields": {
            "CCTV_ADDRESS_NAME": "서울특별시 강남구 남부순환로 2629 (도곡동)",
            "CCTV_KIND": 1,
            "CCTV_LONGITUDE": "127.037348",
            "CCTV_LATITUDE": "37.4852741"
        }
    },
    {
        "pk": 242,
        "model": "safeLoad.CCTV",
        "fields": {
            "CCTV_ADDRESS_NAME": "서울특별시 강남구 남부순환로 2629",
            "CCTV_KIND": 1,
            "CCTV_LONGITUDE": "127.037348",
            "CCTV_LATITUDE": "37.4852741"
        }
    },
    {
        "pk": 243,
        "model": "safeLoad.CCTV",
        "fields": {
            "CCTV_ADDRESS_NAME": "서울특별시 강남구 남부순환로 2629(도곡동)",
            "CCTV_KIND": 1,
            "CCTV_LONGITUDE": "127.037348",
            "CCTV_LATITUDE": "37.4852741"
        }
    },
    {
        "pk": 244,
        "model": "safeLoad.CCTV",
        "fields": {
            "CCTV_ADDRESS_NAME": "서울특별시 강남구 광평로31길 6-6 (수서동)",
            "CCTV_KIND": 1,
            "CCTV_LONGITUDE": "127.0931742",
            "CCTV_LATITUDE": "37.4852977"
        }
    },
    {
        "pk": 245,
        "model": "safeLoad.CCTV",
        "fields": {
            "CCTV_ADDRESS_NAME": "서울특별시 강남구 언주로 117(도곡동, 우성4차아파트)",
            "CCTV_KIND": 1,
            "CCTV_LONGITUDE": "127.0494848",
            "CCTV_LATITUDE": "37.4853084"
        }
    },
    {
        "pk": 246,
        "model": "safeLoad.CCTV",
        "fields": {
            "CCTV_ADDRESS_NAME": "서울특별시 강남구 광평로42길 11 (수서동)",
            "CCTV_KIND": 1,
            "CCTV_LONGITUDE": "127.0992652",
            "CCTV_LATITUDE": "37.48532"
        }
    },
    {
        "pk": 247,
        "model": "safeLoad.CCTV",
        "fields": {
            "CCTV_ADDRESS_NAME": "서울특별시 강남구 광평로31길 66",
            "CCTV_KIND": 1,
            "CCTV_LONGITUDE": "127.0880345",
            "CCTV_LATITUDE": "37.4855195"
        }
    },
    {
        "pk": 248,
        "model": "safeLoad.CCTV",
        "fields": {
            "CCTV_ADDRESS_NAME": "서울특별시 강남구 삼성로 14 (개포동, 주공아파트)",
            "CCTV_KIND": 1,
            "CCTV_LONGITUDE": "127.0714351",
            "CCTV_LATITUDE": "37.4855371"
        }
    },
    {
        "pk": 249,
        "model": "safeLoad.CCTV",
        "fields": {
            "CCTV_ADDRESS_NAME": "서울특별시 강남구 삼성로 14(개포동, 주공아파트)",
            "CCTV_KIND": 1,
            "CCTV_LONGITUDE": "127.0714351",
            "CCTV_LATITUDE": "37.4855371"
        }
    },
    {
        "pk": 250,
        "model": "safeLoad.CCTV",
        "fields": {
            "CCTV_ADDRESS_NAME": "서울특별시 강남구 일원로14길 22(일원동)",
            "CCTV_KIND": 1,
            "CCTV_LONGITUDE": "127.0808471",
            "CCTV_LATITUDE": "37.485653"
        }
    },
    {
        "pk": 251,
        "model": "safeLoad.CCTV",
        "fields": {
            "CCTV_ADDRESS_NAME": "서울특별시 강남구 일원로 95 (일원동)",
            "CCTV_KIND": 1,
            "CCTV_LONGITUDE": "127.0835425",
            "CCTV_LATITUDE": "37.4856712"
        }
    },
    {
        "pk": 252,
        "model": "safeLoad.CCTV",
        "fields": {
            "CCTV_ADDRESS_NAME": "서울특별시 강남구 남부순환로378길 8(도곡동)",
            "CCTV_KIND": 1,
            "CCTV_LONGITUDE": "127.0455845",
            "CCTV_LATITUDE": "37.485696"
        }
    },
    {
        "pk": 253,
        "model": "safeLoad.CCTV",
        "fields": {
            "CCTV_ADDRESS_NAME": "서울특별시 강남구 남부순환로363길 9-4 (도곡동)",
            "CCTV_KIND": 1,
            "CCTV_LONGITUDE": "127.0378017",
            "CCTV_LATITUDE": "37.4857752"
        }
    },
    {
        "pk": 254,
        "model": "safeLoad.CCTV",
        "fields": {
            "CCTV_ADDRESS_NAME": "서울특별시 강남구 개포동 649-1",
            "CCTV_KIND": 1,
            "CCTV_LONGITUDE": "127.0546485",
            "CCTV_LATITUDE": "37.4858079"
        }
    },
    {
        "pk": 255,
        "model": "safeLoad.CCTV",
        "fields": {
            "CCTV_ADDRESS_NAME": "서울특별시 강남구 광평로46길 7 (수서동)",
            "CCTV_KIND": 1,
            "CCTV_LONGITUDE": "127.0993757",
            "CCTV_LATITUDE": "37.4858173"
        }
    },
    {
        "pk": 256,
        "model": "safeLoad.CCTV",
        "fields": {
            "CCTV_ADDRESS_NAME": "서울특별시 강남구 일원로 90 (일원동)",
            "CCTV_KIND": 1,
            "CCTV_LONGITUDE": "127.0821906",
            "CCTV_LATITUDE": "37.4859112"
        }
    },
    {
        "pk": 257,
        "model": "safeLoad.CCTV",
        "fields": {
            "CCTV_ADDRESS_NAME": "서울특별시 강남구 일원로 90(일원동)",
            "CCTV_KIND": 1,
            "CCTV_LONGITUDE": "127.0821906",
            "CCTV_LATITUDE": "37.4859112"
        }
    },
    {
        "pk": 258,
        "model": "safeLoad.CCTV",
        "fields": {
            "CCTV_ADDRESS_NAME": "서울특별시 강남구 일원로 90(일원동)",
            "CCTV_KIND": 1,
            "CCTV_LONGITUDE": "127.0821906",
            "CCTV_LATITUDE": "37.4859112"
        }
    },
    {
        "pk": 259,
        "model": "safeLoad.CCTV",
        "fields": {
            "CCTV_ADDRESS_NAME": "서울특별시 강남구 개포동 156-1",
            "CCTV_KIND": 1,
            "CCTV_LONGITUDE": "127.0594972",
            "CCTV_LATITUDE": "37.4859923"
        }
    },
    {
        "pk": 260,
        "model": "safeLoad.CCTV",
        "fields": {
            "CCTV_ADDRESS_NAME": "서울특별시 강남구 강남대로44길 20 (도곡동)",
            "CCTV_KIND": 1,
            "CCTV_LONGITUDE": "127.0353088",
            "CCTV_LATITUDE": "37.4860099"
        }
    },
    {
        "pk": 261,
        "model": "safeLoad.CCTV",
        "fields": {
            "CCTV_ADDRESS_NAME": "서울특별시 강남구 광평로 242 (수서동)",
            "CCTV_KIND": 1,
            "CCTV_LONGITUDE": "127.0990541",
            "CCTV_LATITUDE": "37.4861348"
        }
    },
    {
        "pk": 262,
        "model": "safeLoad.CCTV",
        "fields": {
            "CCTV_ADDRESS_NAME": "서울특별시 강남구 개포로 401 (개포동)",
            "CCTV_KIND": 1,
            "CCTV_LONGITUDE": "127.057776",
            "CCTV_LATITUDE": "37.4861543"
        }
    },
    {
        "pk": 263,
        "model": "safeLoad.CCTV",
        "fields": {
            "CCTV_ADDRESS_NAME": "서울특별시 강남구 선릉로 103 (개포동)",
            "CCTV_KIND": 1,
            "CCTV_LONGITUDE": "127.0560795",
            "CCTV_LATITUDE": "37.4862777"
        }
    },
    {
        "pk": 264,
        "model": "safeLoad.CCTV",
        "fields": {
            "CCTV_ADDRESS_NAME": "서울특별시 강남구 선릉로 103 (개포동)",
            "CCTV_KIND": 1,
            "CCTV_LONGITUDE": "127.0560795",
            "CCTV_LATITUDE": "37.4862777"
        }
    },
    {
        "pk": 265,
        "model": "safeLoad.CCTV",
        "fields": {
            "CCTV_ADDRESS_NAME": "서울특별시 강남구 남부순환로363길 19 (도곡동)",
            "CCTV_KIND": 1,
            "CCTV_LONGITUDE": "127.0367809",
            "CCTV_LATITUDE": "37.4862841"
        }
    },
    {
        "pk": 266,
        "model": "safeLoad.CCTV",
        "fields": {
            "CCTV_ADDRESS_NAME": "서울특별시 강남구 남부순환로373길 3(도곡동, 도곡지웰카운티)",
            "CCTV_KIND": 1,
            "CCTV_LONGITUDE": "127.0435651",
            "CCTV_LATITUDE": "37.4863077"
        }
    },
    {
        "pk": 267,
        "model": "safeLoad.CCTV",
        "fields": {
            "CCTV_ADDRESS_NAME": "서울특별시 강남구 남부순환로363길 16 (도곡동)",
            "CCTV_KIND": 1,
            "CCTV_LONGITUDE": "127.0381214",
            "CCTV_LATITUDE": "37.4863338"
        }
    },
    {
        "pk": 268,
        "model": "safeLoad.CCTV",
        "fields": {
            "CCTV_ADDRESS_NAME": "서울특별시 강남구 남부순환로363길 16 (도곡동)",
            "CCTV_KIND": 1,
            "CCTV_LONGITUDE": "127.0381214",
            "CCTV_LATITUDE": "37.4863338"
        }
    },
    {
        "pk": 269,
        "model": "safeLoad.CCTV",
        "fields": {
            "CCTV_ADDRESS_NAME": "서울특별시 강남구 남부순환로359길 27",
            "CCTV_KIND": 1,
            "CCTV_LONGITUDE": "127.0358875",
            "CCTV_LATITUDE": "37.4864724"
        }
    },
    {
        "pk": 270,
        "model": "safeLoad.CCTV",
        "fields": {
            "CCTV_ADDRESS_NAME": "서울특별시 강남구 남부순환로375길 9 (도곡동)",
            "CCTV_KIND": 1,
            "CCTV_LONGITUDE": "127.0441785",
            "CCTV_LATITUDE": "37.4865352"
        }
    },
    {
        "pk": 271,
        "model": "safeLoad.CCTV",
        "fields": {
            "CCTV_ADDRESS_NAME": "서울특별시 강남구 개포로 403 (개포동)",
            "CCTV_KIND": 1,
            "CCTV_LONGITUDE": "127.0590041",
            "CCTV_LATITUDE": "37.48657717"
        }
    },
    {
        "pk": 272,
        "model": "safeLoad.CCTV",
        "fields": {
            "CCTV_ADDRESS_NAME": "서울특별시 강남구 영동대로3길 45 (개포동)",
            "CCTV_KIND": 1,
            "CCTV_LONGITUDE": "127.0709874",
            "CCTV_LATITUDE": "37.4866274"
        }
    },
    {
        "pk": 273,
        "model": "safeLoad.CCTV",
        "fields": {
            "CCTV_ADDRESS_NAME": "서울특별시 강남구 영동대로3길 45(개포동)",
            "CCTV_KIND": 1,
            "CCTV_LONGITUDE": "127.0709874",
            "CCTV_LATITUDE": "37.4866274"
        }
    },
    {
        "pk": 274,
        "model": "safeLoad.CCTV",
        "fields": {
            "CCTV_ADDRESS_NAME": "서울특별시 강남구 남부순환로355길 30(도곡동)",
            "CCTV_KIND": 1,
            "CCTV_LONGITUDE": "127.0352626",
            "CCTV_LATITUDE": "37.4867033"
        }
    },
    {
        "pk": 275,
        "model": "safeLoad.CCTV",
        "fields": {
            "CCTV_ADDRESS_NAME": "서울특별시 강남구 남부순환로363길 12-21 (도곡동)",
            "CCTV_KIND": 1,
            "CCTV_LONGITUDE": "127.0383617",
            "CCTV_LATITUDE": "37.4867232"
        }
    },
    {
        "pk": 276,
        "model": "safeLoad.CCTV",
        "fields": {
            "CCTV_ADDRESS_NAME": "서울특별시 강남구 삼성로 29",
            "CCTV_KIND": 1,
            "CCTV_LONGITUDE": "127.0660933",
            "CCTV_LATITUDE": "37.486824"
        }
    },
    {
        "pk": 277,
        "model": "safeLoad.CCTV",
        "fields": {
            "CCTV_ADDRESS_NAME": "서울특별시 강남구 언주로 123",
            "CCTV_KIND": 1,
            "CCTV_LONGITUDE": "127.0489647",
            "CCTV_LATITUDE": "37.4869126"
        }
    },
    {
        "pk": 278,
        "model": "safeLoad.CCTV",
        "fields": {
            "CCTV_ADDRESS_NAME": "서울특별시 강남구 개포로 지하 403 (개포동)",
            "CCTV_KIND": 1,
            "CCTV_LONGITUDE": "127.0600823",
            "CCTV_LATITUDE": "37.4869214"
        }
    },
    {
        "pk": 279,
        "model": "safeLoad.CCTV",
        "fields": {
            "CCTV_ADDRESS_NAME": "서울특별시 강남구 강남대로 262 (도곡동)",
            "CCTV_KIND": 1,
            "CCTV_LONGITUDE": "127.0334325",
            "CCTV_LATITUDE": "37.4869217"
        }
    },
    {
        "pk": 280,
        "model": "safeLoad.CCTV",
        "fields": {
            "CCTV_ADDRESS_NAME": "서울특별시 강남구 강남대로 262 (도곡동)",
            "CCTV_KIND": 1,
            "CCTV_LONGITUDE": "127.0334325",
            "CCTV_LATITUDE": "37.4869217"
        }
    },
    {
        "pk": 281,
        "model": "safeLoad.CCTV",
        "fields": {
            "CCTV_ADDRESS_NAME": "서울특별시 강남구 광평로47길 17",
            "CCTV_KIND": 1,
            "CCTV_LONGITUDE": "127.0983474",
            "CCTV_LATITUDE": "37.4870719"
        }
    },
    {
        "pk": 282,
        "model": "safeLoad.CCTV",
        "fields": {
            "CCTV_ADDRESS_NAME": "서울특별시 강남구 남부순환로 2743 (도곡동)",
            "CCTV_KIND": 1,
            "CCTV_LONGITUDE": "127.0456659",
            "CCTV_LATITUDE": "37.4871167"
        }
    },
    {
        "pk": 283,
        "model": "safeLoad.CCTV",
        "fields": {
            "CCTV_ADDRESS_NAME": "서울특별시 강남구 광평로56길 11",
            "CCTV_KIND": 1,
            "CCTV_LONGITUDE": "127.1051693",
            "CCTV_LATITUDE": "37.4872625"
        }
    },
    {
        "pk": 284,
        "model": "safeLoad.CCTV",
        "fields": {
            "CCTV_ADDRESS_NAME": "서울특별시 강남구 남부순환로359길 41 (도곡동)",
            "CCTV_KIND": 1,
            "CCTV_LONGITUDE": "127.0351627",
            "CCTV_LATITUDE": "37.4872648"
        }
    },
    {
        "pk": 285,
        "model": "safeLoad.CCTV",
        "fields": {
            "CCTV_ADDRESS_NAME": "서울특별시 강남구 남부순환로381길 54 (도곡동, 신성빌리지)",
            "CCTV_KIND": 1,
            "CCTV_LONGITUDE": "127.0445919",
            "CCTV_LATITUDE": "37.487281"
        }
    },
    {
        "pk": 286,
        "model": "safeLoad.CCTV",
        "fields": {
            "CCTV_ADDRESS_NAME": "서울특별시 강남구 광평로 280",
            "CCTV_KIND": 1,
            "CCTV_LONGITUDE": "127.1031088",
            "CCTV_LATITUDE": "37.4872829"
        }
    },
    {
        "pk": 287,
        "model": "safeLoad.CCTV",
        "fields": {
            "CCTV_ADDRESS_NAME": "서울특별시 강남구 광평로 280(수서동)",
            "CCTV_KIND": 1,
            "CCTV_LONGITUDE": "127.1031088",
            "CCTV_LATITUDE": "37.4872829"
        }
    },
    {
        "pk": 288,
        "model": "safeLoad.CCTV",
        "fields": {
            "CCTV_ADDRESS_NAME": "서울특별시 강남구 언주로30길 26 (도곡동)",
            "CCTV_KIND": 1,
            "CCTV_LONGITUDE": "127.0527274",
            "CCTV_LATITUDE": "37.4873934"
        }
    },
    {
        "pk": 289,
        "model": "safeLoad.CCTV",
        "fields": {
            "CCTV_ADDRESS_NAME": "서울특별시 강남구 언주로30길 26(도곡동, 타워팰리스)",
            "CCTV_KIND": 1,
            "CCTV_LONGITUDE": "127.0527274",
            "CCTV_LATITUDE": "37.4873934"
        }
    },
    {
        "pk": 290,
        "model": "safeLoad.CCTV",
        "fields": {
            "CCTV_ADDRESS_NAME": "서울특별시 강남구 언주로30길 26 (도곡동)",
            "CCTV_KIND": 1,
            "CCTV_LONGITUDE": "127.0527274",
            "CCTV_LATITUDE": "37.4873934"
        }
    },
    {
        "pk": 291,
        "model": "safeLoad.CCTV",
        "fields": {
            "CCTV_ADDRESS_NAME": "서울특별시 강남구 남부순환로363길 30",
            "CCTV_KIND": 1,
            "CCTV_LONGITUDE": "127.0392695",
            "CCTV_LATITUDE": "37.4874478"
        }
    },
    {
        "pk": 292,
        "model": "safeLoad.CCTV",
        "fields": {
            "CCTV_ADDRESS_NAME": "서울특별시 강남구 남부순환로373길 24 (도곡동, 포레스트빌)",
            "CCTV_KIND": 1,
            "CCTV_LONGITUDE": "127.0439298",
            "CCTV_LATITUDE": "37.4875018"
        }
    },
    {
        "pk": 293,
        "model": "safeLoad.CCTV",
        "fields": {
            "CCTV_ADDRESS_NAME": "서울특별시 강남구 삼성로4길 17 (개포동, 주공아파트)",
            "CCTV_KIND": 1,
            "CCTV_LONGITUDE": "127.0686558",
            "CCTV_LATITUDE": "37.4875354"
        }
    },
    {
        "pk": 294,
        "model": "safeLoad.CCTV",
        "fields": {
            "CCTV_ADDRESS_NAME": "서울특별시 강남구 남부순환로377길 25(도곡동, 현대파크빌라)",
            "CCTV_KIND": 1,
            "CCTV_LONGITUDE": "127.0445671",
            "CCTV_LATITUDE": "37.4876241"
        }
    },
    {
        "pk": 295,
        "model": "safeLoad.CCTV",
        "fields": {
            "CCTV_ADDRESS_NAME": "서울특별시 강남구 도곡로2길 34 (도곡동)",
            "CCTV_KIND": 1,
            "CCTV_LONGITUDE": "127.0340166",
            "CCTV_LATITUDE": "37.4877501"
        }
    },
    {
        "pk": 296,
        "model": "safeLoad.CCTV",
        "fields": {
            "CCTV_ADDRESS_NAME": "서울특별시 강남구 강남대로54길 6",
            "CCTV_KIND": 1,
            "CCTV_LONGITUDE": "127.0331691",
            "CCTV_LATITUDE": "37.487881"
        }
    },
    {
        "pk": 297,
        "model": "safeLoad.CCTV",
        "fields": {
            "CCTV_ADDRESS_NAME": "서울특별시 강남구 남부순환로359길 36 (도곡동)",
            "CCTV_KIND": 1,
            "CCTV_LONGITUDE": "127.0359252",
            "CCTV_LATITUDE": "37.4879414"
        }
    },
    {
        "pk": 298,
        "model": "safeLoad.CCTV",
        "fields": {
            "CCTV_ADDRESS_NAME": "서울특별시 강남구 영동대로3길 9 (개포동)",
            "CCTV_KIND": 1,
            "CCTV_LONGITUDE": "127.0736883",
            "CCTV_LATITUDE": "37.4879498"
        }
    },
    {
        "pk": 299,
        "model": "safeLoad.CCTV",
        "fields": {
            "CCTV_ADDRESS_NAME": "서울특별시 강남구 언주로30길 13(도곡동, 대림아크로빌, 대림아크로텔)",
            "CCTV_KIND": 1,
            "CCTV_LONGITUDE": "127.0511666",
            "CCTV_LATITUDE": "37.4881387"
        }
    },
    {
        "pk": 300,
        "model": "safeLoad.CCTV",
        "fields": {
            "CCTV_ADDRESS_NAME": "서울특별시 강남구 남부순환로365길 43 (도곡동)",
            "CCTV_KIND": 1,
            "CCTV_LONGITUDE": "127.0398234",
            "CCTV_LATITUDE": "37.4882588"
        }
    },
    {
        "pk": 301,
        "model": "safeLoad.CCTV",
        "fields": {
            "CCTV_ADDRESS_NAME": "서울특별시 강남구 언주로30길 56 (도곡동)",
            "CCTV_KIND": 1,
            "CCTV_LONGITUDE": "127.0544123",
            "CCTV_LATITUDE": "37.4882818"
        }
    },
    {
        "pk": 302,
        "model": "safeLoad.CCTV",
        "fields": {
            "CCTV_ADDRESS_NAME": "서울특별시 강남구 언주로30길 56(도곡동, 타워팰리스)",
            "CCTV_KIND": 1,
            "CCTV_LONGITUDE": "127.0544123",
            "CCTV_LATITUDE": "37.4882818"
        }
    },
    {
        "pk": 303,
        "model": "safeLoad.CCTV",
        "fields": {
            "CCTV_ADDRESS_NAME": "서울특별시 강남구 삼성로 36(골목)",
            "CCTV_KIND": 1,
            "CCTV_LONGITUDE": "127.0669171",
            "CCTV_LATITUDE": "37.4883263"
        }
    },
    {
        "pk": 304,
        "model": "safeLoad.CCTV",
        "fields": {
            "CCTV_ADDRESS_NAME": "서울특별시 강남구 삼성로 36(골목)",
            "CCTV_KIND": 1,
            "CCTV_LONGITUDE": "127.0669171",
            "CCTV_LATITUDE": "37.4883263"
        }
    },
    {
        "pk": 305,
        "model": "safeLoad.CCTV",
        "fields": {
            "CCTV_ADDRESS_NAME": "서울특별시 강남구 광평로51길 8(수서동)",
            "CCTV_KIND": 1,
            "CCTV_LONGITUDE": "127.10248",
            "CCTV_LATITUDE": "37.4883342"
        }
    },
    {
        "pk": 306,
        "model": "safeLoad.CCTV",
        "fields": {
            "CCTV_ADDRESS_NAME": "서울특별시 강남구 언주로30길 27(도곡동)",
            "CCTV_KIND": 1,
            "CCTV_LONGITUDE": "127.0525713",
            "CCTV_LATITUDE": "37.4883815"
        }
    },
    {
        "pk": 307,
        "model": "safeLoad.CCTV",
        "fields": {
            "CCTV_ADDRESS_NAME": "서울특별시 강남구 남부순환로373길 44 (도곡동)",
            "CCTV_KIND": 1,
            "CCTV_LONGITUDE": "127.0450942",
            "CCTV_LATITUDE": "37.488415"
        }
    },
    {
        "pk": 308,
        "model": "safeLoad.CCTV",
        "fields": {
            "CCTV_ADDRESS_NAME": "서울특별시 강남구 광평로47길 28 (수서동)",
            "CCTV_KIND": 1,
            "CCTV_LONGITUDE": "127.0987923",
            "CCTV_LATITUDE": "37.4884467"
        }
    },
    {
        "pk": 309,
        "model": "safeLoad.CCTV",
        "fields": {
            "CCTV_ADDRESS_NAME": "서울특별시 강남구 도곡로18길 59(도곡동)",
            "CCTV_KIND": 1,
            "CCTV_LONGITUDE": "127.0396621",
            "CCTV_LATITUDE": "37.4884944"
        }
    },
    {
        "pk": 310,
        "model": "safeLoad.CCTV",
        "fields": {
            "CCTV_ADDRESS_NAME": "서울특별시 강남구 강남대로54길 17 (도곡동)",
            "CCTV_KIND": 1,
            "CCTV_LONGITUDE": "127.0339025",
            "CCTV_LATITUDE": "37.4885313"
        }
    },
    {
        "pk": 311,
        "model": "safeLoad.CCTV",
        "fields": {
            "CCTV_ADDRESS_NAME": "서울특별시 강남구 개포로82길 13-9 (개포동)",
            "CCTV_KIND": 1,
            "CCTV_LONGITUDE": "127.0677433",
            "CCTV_LATITUDE": "37.4886247"
        }
    },
    {
        "pk": 312,
        "model": "safeLoad.CCTV",
        "fields": {
            "CCTV_ADDRESS_NAME": "서울특별시 강남구 도곡로2길 14 (도곡동)",
            "CCTV_KIND": 1,
            "CCTV_LONGITUDE": "127.0331358",
            "CCTV_LATITUDE": "37.4887133"
        }
    },
    {
        "pk": 313,
        "model": "safeLoad.CCTV",
        "fields": {
            "CCTV_ADDRESS_NAME": "서울특별시 강남구 개포로 409-1(개포동)",
            "CCTV_KIND": 1,
            "CCTV_LONGITUDE": "127.0623969",
            "CCTV_LATITUDE": "37.4887221"
        }
    },
    {
        "pk": 314,
        "model": "safeLoad.CCTV",
        "fields": {
            "CCTV_ADDRESS_NAME": "서울특별시 강남구 개포로 409-1 (개포동)",
            "CCTV_KIND": 1,
            "CCTV_LONGITUDE": "127.0623969",
            "CCTV_LATITUDE": "37.4887221"
        }
    },
    {
        "pk": 315,
        "model": "safeLoad.CCTV",
        "fields": {
            "CCTV_ADDRESS_NAME": "서울특별시 강남구 개포로 409-1 (개포동)",
            "CCTV_KIND": 1,
            "CCTV_LONGITUDE": "127.0623969",
            "CCTV_LATITUDE": "37.4887221"
        }
    },
    {
        "pk": 316,
        "model": "safeLoad.CCTV",
        "fields": {
            "CCTV_ADDRESS_NAME": "서울특별시 강남구 논현로 209(도곡동, 경남아파트)",
            "CCTV_KIND": 1,
            "CCTV_LONGITUDE": "127.0408333",
            "CCTV_LATITUDE": "37.4887779"
        }
    },
    {
        "pk": 317,
        "model": "safeLoad.CCTV",
        "fields": {
            "CCTV_ADDRESS_NAME": "서울특별시 강남구 도곡로18길 34 (도곡동, 현대아파트)",
            "CCTV_KIND": 1,
            "CCTV_LONGITUDE": "127.0379787",
            "CCTV_LATITUDE": "37.4888159"
        }
    },
    {
        "pk": 318,
        "model": "safeLoad.CCTV",
        "fields": {
            "CCTV_ADDRESS_NAME": "서울특별시 강남구 개포로 516 (개포동)",
            "CCTV_KIND": 1,
            "CCTV_LONGITUDE": "127.071487",
            "CCTV_LATITUDE": "37.4888326"
        }
    },
    {
        "pk": 319,
        "model": "safeLoad.CCTV",
        "fields": {
            "CCTV_ADDRESS_NAME": "서울특별시 강남구 개포로82길 9-11 (개포동)",
            "CCTV_KIND": 1,
            "CCTV_LONGITUDE": "127.0680106",
            "CCTV_LATITUDE": "37.4888692"
        }
    },
    {
        "pk": 320,
        "model": "safeLoad.CCTV",
        "fields": {
            "CCTV_ADDRESS_NAME": "서울특별시 강남구 논현로51길 25(도곡동, 현대그린아파트)",
            "CCTV_KIND": 1,
            "CCTV_LONGITUDE": "127.0394373",
            "CCTV_LATITUDE": "37.4889143"
        }
    },
    {
        "pk": 321,
        "model": "safeLoad.CCTV",
        "fields": {
            "CCTV_ADDRESS_NAME": "서울특별시 강남구 밤고개로1길 52",
            "CCTV_KIND": 1,
            "CCTV_LONGITUDE": "127.1052745",
            "CCTV_LATITUDE": "37.4889672"
        }
    },
    {
        "pk": 322,
        "model": "safeLoad.CCTV",
        "fields": {
            "CCTV_ADDRESS_NAME": "서울특별시 강남구 밤고개로1길 52(수서동)",
            "CCTV_KIND": 1,
            "CCTV_LONGITUDE": "127.1052745",
            "CCTV_LATITUDE": "37.4889672"
        }
    },
    {
        "pk": 323,
        "model": "safeLoad.CCTV",
        "fields": {
            "CCTV_ADDRESS_NAME": "서울특별시 강남구 도곡로6길 18 (도곡동)",
            "CCTV_KIND": 1,
            "CCTV_LONGITUDE": "127.0343337",
            "CCTV_LATITUDE": "37.4890286"
        }
    },
    {
        "pk": 324,
        "model": "safeLoad.CCTV",
        "fields": {
            "CCTV_ADDRESS_NAME": "서울특별시 강남구 언주로 203 (도곡동)",
            "CCTV_KIND": 1,
            "CCTV_LONGITUDE": "127.0488071",
            "CCTV_LATITUDE": "37.4891712"
        }
    },
    {
        "pk": 325,
        "model": "safeLoad.CCTV",
        "fields": {
            "CCTV_ADDRESS_NAME": "서울특별시 강남구 일원로 53(일원동)",
            "CCTV_KIND": 1,
            "CCTV_LONGITUDE": "127.0817973",
            "CCTV_LATITUDE": "37.489225"
        }
    },
    {
        "pk": 326,
        "model": "safeLoad.CCTV",
        "fields": {
            "CCTV_ADDRESS_NAME": "서울특별시 강남구 대치동 501 (늘벗공원 양재천로쪽 입구)",
            "CCTV_KIND": 1,
            "CCTV_LONGITUDE": "127.0580864",
            "CCTV_LATITUDE": "37.4892251"
        }
    },
    {
        "pk": 327,
        "model": "safeLoad.CCTV",
        "fields": {
            "CCTV_ADDRESS_NAME": "서울특별시 강남구 개포로 512(개포동)",
            "CCTV_KIND": 1,
            "CCTV_LONGITUDE": "127.0688124",
            "CCTV_LATITUDE": "37.4893117"
        }
    },
    {
        "pk": 328,
        "model": "safeLoad.CCTV",
        "fields": {
            "CCTV_ADDRESS_NAME": "서울특별시 강남구 도곡로4길 6 (도곡동)",
            "CCTV_KIND": 1,
            "CCTV_LONGITUDE": "127.0331341",
            "CCTV_LATITUDE": "37.4894603"
        }
    },
    {
        "pk": 329,
        "model": "safeLoad.CCTV",
        "fields": {
            "CCTV_ADDRESS_NAME": "서울특별시 강남구 대치동 501 (늘벗공원 내 선릉로 쪽 출입구)",
            "CCTV_KIND": 1,
            "CCTV_LONGITUDE": "127.0563336",
            "CCTV_LATITUDE": "37.4895389"
        }
    },
    {
        "pk": 330,
        "model": "safeLoad.CCTV",
        "fields": {
            "CCTV_ADDRESS_NAME": "서울특별시 강남구 일원로9길 18(일원동)",
            "CCTV_KIND": 1,
            "CCTV_LONGITUDE": "127.0831044",
            "CCTV_LATITUDE": "37.489601"
        }
    },
    {
        "pk": 331,
        "model": "safeLoad.CCTV",
        "fields": {
            "CCTV_ADDRESS_NAME": "서울특별시 강남구 도곡로 112(도곡동)",
            "CCTV_KIND": 1,
            "CCTV_LONGITUDE": "127.0328256",
            "CCTV_LATITUDE": "37.4896145"
        }
    },
    {
        "pk": 332,
        "model": "safeLoad.CCTV",
        "fields": {
            "CCTV_ADDRESS_NAME": "서울특별시 강남구 언주로30길 57(도곡동, 타워팰리스)",
            "CCTV_KIND": 1,
            "CCTV_LONGITUDE": "127.0545117",
            "CCTV_LATITUDE": "37.4896405"
        }
    },
    {
        "pk": 333,
        "model": "safeLoad.CCTV",
        "fields": {
            "CCTV_ADDRESS_NAME": "서울특별시 강남구 양재대로29길 6 (일원동)",
            "CCTV_KIND": 1,
            "CCTV_LONGITUDE": "127.0824071",
            "CCTV_LATITUDE": "37.4896604"
        }
    },
    {
        "pk": 334,
        "model": "safeLoad.CCTV",
        "fields": {
            "CCTV_ADDRESS_NAME": "서울특별시 강남구 개포로 509 (개포동)",
            "CCTV_KIND": 1,
            "CCTV_LONGITUDE": "127.068281",
            "CCTV_LATITUDE": "37.4896697"
        }
    },
    {
        "pk": 335,
        "model": "safeLoad.CCTV",
        "fields": {
            "CCTV_ADDRESS_NAME": "서울특별시 강남구 개포로 509",
            "CCTV_KIND": 1,
            "CCTV_LONGITUDE": "127.068281",
            "CCTV_LATITUDE": "37.4896697"
        }
    },
    {
        "pk": 336,
        "model": "safeLoad.CCTV",
        "fields": {
            "CCTV_ADDRESS_NAME": "서울특별시 강남구 개포로 511 (개포동)",
            "CCTV_KIND": 1,
            "CCTV_LONGITUDE": "127.0690638",
            "CCTV_LATITUDE": "37.4897452"
        }
    },
    {
        "pk": 337,
        "model": "safeLoad.CCTV",
        "fields": {
            "CCTV_ADDRESS_NAME": "서울특별시 강남구 도곡로14길 14-1 (도곡동, 파크힐)",
            "CCTV_KIND": 1,
            "CCTV_LONGITUDE": "127.0370152",
            "CCTV_LATITUDE": "37.4897911"
        }
    },
    {
        "pk": 338,
        "model": "safeLoad.CCTV",
        "fields": {
            "CCTV_ADDRESS_NAME": "서울특별시 강남구 도곡로14길 14-1 (도곡동, 파크힐)",
            "CCTV_KIND": 1,
            "CCTV_LONGITUDE": "127.0370152",
            "CCTV_LATITUDE": "37.4897911"
        }
    },
    {
        "pk": 339,
        "model": "safeLoad.CCTV",
        "fields": {
            "CCTV_ADDRESS_NAME": "서울특별시 강남구 영동대로4길 20 (일원동)",
            "CCTV_KIND": 1,
            "CCTV_LONGITUDE": "127.0762907",
            "CCTV_LATITUDE": "37.4898353"
        }
    },
    {
        "pk": 340,
        "model": "safeLoad.CCTV",
        "fields": {
            "CCTV_ADDRESS_NAME": "서울특별시 강남구 영동대로4길 20 (일원동)",
            "CCTV_KIND": 1,
            "CCTV_LONGITUDE": "127.0762907",
            "CCTV_LATITUDE": "37.4898353"
        }
    },
    {
        "pk": 341,
        "model": "safeLoad.CCTV",
        "fields": {
            "CCTV_ADDRESS_NAME": "서울특별시 강남구 도곡로8길 6 (도곡동)",
            "CCTV_KIND": 1,
            "CCTV_LONGITUDE": "127.0349918",
            "CCTV_LATITUDE": "37.4900837"
        }
    },
    {
        "pk": 342,
        "model": "safeLoad.CCTV",
        "fields": {
            "CCTV_ADDRESS_NAME": "서울특별시 강남구 양재대로33길 10(일원동)",
            "CCTV_KIND": 1,
            "CCTV_LONGITUDE": "127.0831359",
            "CCTV_LATITUDE": "37.4901707"
        }
    },
    {
        "pk": 343,
        "model": "safeLoad.CCTV",
        "fields": {
            "CCTV_ADDRESS_NAME": "서울특별시 강남구 개포로110길 36 (일원동, 대우아파트)",
            "CCTV_KIND": 1,
            "CCTV_LONGITUDE": "127.0786588",
            "CCTV_LATITUDE": "37.4901881"
        }
    },
    {
        "pk": 344,
        "model": "safeLoad.CCTV",
        "fields": {
            "CCTV_ADDRESS_NAME": "서울특별시 강남구 개포로110길 36 (일원동, 대우아파트)",
            "CCTV_KIND": 1,
            "CCTV_LONGITUDE": "127.0786588",
            "CCTV_LATITUDE": "37.4901881"
        }
    },
    {
        "pk": 345,
        "model": "safeLoad.CCTV",
        "fields": {
            "CCTV_ADDRESS_NAME": "서울특별시 강남구 일원로9길 48 (일원동)",
            "CCTV_KIND": 1,
            "CCTV_LONGITUDE": "127.0854716",
            "CCTV_LATITUDE": "37.490305"
        }
    },
    {
        "pk": 346,
        "model": "safeLoad.CCTV",
        "fields": {
            "CCTV_ADDRESS_NAME": "서울특별시 강남구 개포로 513 (개포동)",
            "CCTV_KIND": 1,
            "CCTV_LONGITUDE": "127.0694778",
            "CCTV_LATITUDE": "37.4903657"
        }
    },
    {
        "pk": 347,
        "model": "safeLoad.CCTV",
        "fields": {
            "CCTV_ADDRESS_NAME": "서울특별시 강남구 일원로9길 45 (일원동)",
            "CCTV_KIND": 1,
            "CCTV_LONGITUDE": "127.0850868",
            "CCTV_LATITUDE": "37.4904228"
        }
    },
    {
        "pk": 348,
        "model": "safeLoad.CCTV",
        "fields": {
            "CCTV_ADDRESS_NAME": "서울특별시 강남구 양재천로 321 (대치동)",
            "CCTV_KIND": 1,
            "CCTV_LONGITUDE": "127.0583895",
            "CCTV_LATITUDE": "37.4905203"
        }
    },
    {
        "pk": 349,
        "model": "safeLoad.CCTV",
        "fields": {
            "CCTV_ADDRESS_NAME": "서울특별시 강남구 양재대로33길 14 (일원동, 호정빌라트)",
            "CCTV_KIND": 1,
            "CCTV_LONGITUDE": "127.0830394",
            "CCTV_LATITUDE": "37.4905691"
        }
    },
    {
        "pk": 350,
        "model": "safeLoad.CCTV",
        "fields": {
            "CCTV_ADDRESS_NAME": "서울특별시 강남구 일원로 35 (일원동)",
            "CCTV_KIND": 1,
            "CCTV_LONGITUDE": "127.0811744",
            "CCTV_LATITUDE": "37.4905942"
        }
    },
    {
        "pk": 351,
        "model": "safeLoad.CCTV",
        "fields": {
            "CCTV_ADDRESS_NAME": "서울특별시 강남구 양재대로33길 23-12 (일원동)",
            "CCTV_KIND": 1,
            "CCTV_LONGITUDE": "127.0817873",
            "CCTV_LATITUDE": "37.4906828"
        }
    },
    {
        "pk": 352,
        "model": "safeLoad.CCTV",
        "fields": {
            "CCTV_ADDRESS_NAME": "서울특별시 강남구 양재대로39길 15 (일원동)",
            "CCTV_KIND": 1,
            "CCTV_LONGITUDE": "127.0840283",
            "CCTV_LATITUDE": "37.4907083"
        }
    },
    {
        "pk": 353,
        "model": "safeLoad.CCTV",
        "fields": {
            "CCTV_ADDRESS_NAME": "서울특별시 강남구 논현로 218 (도곡동, 삼익아파트)",
            "CCTV_KIND": 1,
            "CCTV_LONGITUDE": "127.0421113",
            "CCTV_LATITUDE": "37.4907129"
        }
    },
    {
        "pk": 354,
        "model": "safeLoad.CCTV",
        "fields": {
            "CCTV_ADDRESS_NAME": "서울특별시 강남구 도곡로18길 9 (도곡동)",
            "CCTV_KIND": 1,
            "CCTV_LONGITUDE": "127.0385003",
            "CCTV_LATITUDE": "37.4907331"
        }
    },
    {
        "pk": 355,
        "model": "safeLoad.CCTV",
        "fields": {
            "CCTV_ADDRESS_NAME": "서울특별시 강남구 도곡로18길 7 (도곡동)",
            "CCTV_KIND": 1,
            "CCTV_LONGITUDE": "127.0382898",
            "CCTV_LATITUDE": "37.4907485"
        }
    },
    {
        "pk": 356,
        "model": "safeLoad.CCTV",
        "fields": {
            "CCTV_ADDRESS_NAME": "서울특별시 강남구 도곡로1길 14 (역삼동)",
            "CCTV_KIND": 1,
            "CCTV_LONGITUDE": "127.0324875",
            "CCTV_LATITUDE": "37.4907579"
        }
    },
    {
        "pk": 357,
        "model": "safeLoad.CCTV",
        "fields": {
            "CCTV_ADDRESS_NAME": "서울특별시 강남구 양재대로37길 18 (일원동)",
            "CCTV_KIND": 1,
            "CCTV_LONGITUDE": "127.083814",
            "CCTV_LATITUDE": "37.490758"
        }
    },
    {
        "pk": 358,
        "model": "safeLoad.CCTV",
        "fields": {
            "CCTV_ADDRESS_NAME": "서울특별시 강남구 일원로9길 59",
            "CCTV_KIND": 1,
            "CCTV_LONGITUDE": "127.0861949",
            "CCTV_LATITUDE": "37.490808"
        }
    },
    {
        "pk": 359,
        "model": "safeLoad.CCTV",
        "fields": {
            "CCTV_ADDRESS_NAME": "서울특별시 강남구 일원로9길 76 (일원동)",
            "CCTV_KIND": 1,
            "CCTV_LONGITUDE": "127.0876891",
            "CCTV_LATITUDE": "37.4909628"
        }
    },
    {
        "pk": 360,
        "model": "safeLoad.CCTV",
        "fields": {
            "CCTV_ADDRESS_NAME": "서울특별시 강남구 양재천로 363 (대치동)",
            "CCTV_KIND": 1,
            "CCTV_LONGITUDE": "127.0624593",
            "CCTV_LATITUDE": "37.4909689"
        }
    },
    {
        "pk": 361,
        "model": "safeLoad.CCTV",
        "fields": {
            "CCTV_ADDRESS_NAME": "서울특별시 강남구 양재천로 363 (대치동)",
            "CCTV_KIND": 1,
            "CCTV_LONGITUDE": "127.0624593",
            "CCTV_LATITUDE": "37.4909689"
        }
    },
    {
        "pk": 362,
        "model": "safeLoad.CCTV",
        "fields": {
            "CCTV_ADDRESS_NAME": "서울특별시 강남구 광평로51길 46 (수서동)",
            "CCTV_KIND": 1,
            "CCTV_LONGITUDE": "127.1015493",
            "CCTV_LATITUDE": "37.4909843"
        }
    },
    {
        "pk": 363,
        "model": "safeLoad.CCTV",
        "fields": {
            "CCTV_ADDRESS_NAME": "서울특별시 강남구 광평로51길 46 (수서동)",
            "CCTV_KIND": 1,
            "CCTV_LONGITUDE": "127.1015493",
            "CCTV_LATITUDE": "37.4909843"
        }
    },
    {
        "pk": 364,
        "model": "safeLoad.CCTV",
        "fields": {
            "CCTV_ADDRESS_NAME": "서울특별시 강남구 양재대로41길 18(일원동)",
            "CCTV_KIND": 1,
            "CCTV_LONGITUDE": "127.0846385",
            "CCTV_LATITUDE": "37.4910257"
        }
    },
    {
        "pk": 365,
        "model": "safeLoad.CCTV",
        "fields": {
            "CCTV_ADDRESS_NAME": "서울특별시 강남구 광평로51길 49(수서동, 주공아파트)",
            "CCTV_KIND": 1,
            "CCTV_LONGITUDE": "127.1002787",
            "CCTV_LATITUDE": "37.491035"
        }
    },